régionCNC;N° auto;nom;région administrative;adresse;code INSEE;commune;population de la commune;DEP;N°UU;unité urbaine;population unité urbaine;situation géographique;écrans;fauteuils;semaines d'activité;séances;entrées 2022;entrées 2021;évolution entrées;tranche d'entrées;programmateur;AE;catégorie Art et Essai;label Art et Essai;genre;multiplexe;zone de la commune;nombre de films programmés;nombre de films inédits;nombre de films en semaine 1;PdM en entrées des films français;PdM en entrées des films américains;PdM en entrées des films européens;PdM en entrées des autres films;films Art et Essai;PdM en entrées des films Art et Essai;latitude;longitude;geolocalisation
1;31;UGC NORMANDIE;ILE-DE-FRANCE;116 AVENUE DES CHAMPS ELYSEES;75108;Paris 8e Arrondissement;36218;75;00851;Paris;10949158;01-Paris;4;1533;53;6966;148007;119434;23,92367333;De 100 à 150 000 entrées;UGC;NON;NON;;FIXE;NON;C;125;79;77;44,70344051;36,50531204;12,451277;6,33997045;54;23,97523394;48.872265;2.300938;48.872265, 2.300938
1;204;UGC OPERA;ILE-DE-FRANCE;32 BD DES ITALIENS;75109;Paris 9e Arrondissement;60784;75;00851;Paris;10949158;01-Paris;4;722;53;6840;110063;81837;34,49051163;De 100 à 150 000 entrées;UGC;NON;NON;;FIXE;NON;C;111;71;71;55,64449452;27,05359658;12,6227706;4,679138312;55;23,24759456;48.871332;2.335302;48.871332, 2.335302
1;733;STUDIO GALANDE;ILE-DE-FRANCE;42 RUE GALANDE;75105;Paris 5e Arrondissement;58050;75;00851;Paris;10949158;01-Paris;1;97;53;996;13643;8084;68,76546264;De 10 à 20 000 entrées;;OUI;A;;FIXE;NON;C;155;110;4;25,68362246;4,697147898;53,33725375;16,28197589;115;87,83446045;48.851619;2.347076;48.851619, 2.347076
1;821;PARNASSIEN;ILE-DE-FRANCE;98 BD DU MONTPARNASSE;75114;Paris 14e Arrondissement;134926;75;00851;Paris;10949158;01-Paris;7;842;53;13507;216828;95714;126,5373926;De 200 à 300 000 entrées;;OUI;A;RD;FIXE;NON;C;248;153;134;63,36217679;5,584635766;15,32115361;15,73203383;201;94,58166186;48.842443;2.327625;48.842443, 2.327625
1;1031;PUBLICIS ELYSEES;ILE-DE-FRANCE;133 AV DES CHAMPS ELYSEES;75108;Paris 8e Arrondissement;36218;75;00851;Paris;10949158;01-Paris;2;609;50;3164;46020;35847;28,37894384;De 40 à 50 000 entrées;;NON;NON;;FIXE;NON;C;165;86;48;38,38598234;20,32424865;16,80628627;24,48348274;68;42,59715041;48.872794;2.296984;48.872794, 2.296984
1;1393;LE BRADY;ILE-DE-FRANCE;39 BOULEVARD DE STRASBOURG;75110;Paris 10e Arrondissement;83873;75;00851;Paris;10949158;01-Paris;2;139;53;4825;65331;37547;73,9979226;De 50 à 80 000 entrées;;OUI;A;RDJPPR;FIXE;NON;C;410;120;4;53,41733423;15,25504581;19,38874541;11,93887454;325;82,93060056;48.871771;2.355398;48.871771, 2.355398
1;2251;MAJESTIC PASSY;ILE-DE-FRANCE;18 - 20 RUE DE PASSY;75116;Paris 16e Arrondissement;165118;75;00851;Paris;10949158;01-Paris;3;617;51;5456;116744;73590;58,64111972;De 100 à 150 000 entrées;;NON;NON;;FIXE;NON;C;192;93;60;62,30163342;18,6015324;13,61185863;5,484975548;102;28,8455177;48.858204;2.282104;48.858204, 2.282104
1;5861;MK2 BASTILLE COTE BEAUMARCHAIS;ILE-DE-FRANCE;3 BD R LENOIR 4/6 BD BEAUMARCHAI;75111;Paris 11e Arrondissement;145124;75;00851;Paris;10949158;01-Paris;4;469;53;8259;200406;121331;65,17295662;De 200 à 300 000 entrées;MK2;OUI;A;;FIXE;NON;C;131;96;65;62,58056044;18,35767824;12,32195891;6,739802412;111;83,88185143;48.854674;2.369381;48.854674, 2.369381
1;6212;MK2 NATION;ILE-DE-FRANCE;133 BOULEVARD DIDEROT;75112;Paris 12e Arrondissement;141275;75;00851;Paris;10949158;01-Paris;8;554;53;14123;304684;195764;55,63842177;De 300 à 450 000 entrées;MK2;NON;NON;;FIXE;OUI;C;194;108;86;63,44531242;20,09499306;11,755308;4,704386523;127;50,22783024;48.848213;2.39311;48.848213, 2.39311
1;8391;LE CINEMA DU PANTHEON;ILE-DE-FRANCE;13 RUE VICTOR COUSIN;75105;Paris 5e Arrondissement;58050;75;00851;Paris;10949158;01-Paris;1;200;53;1527;16990;7675;121,3680782;De 10 à 20 000 entrées;;OUI;A;;FIXE;NON;C;64;16;5;88,62455726;5,047225502;4,203069658;2,12514758;54;93,97284534;48.847502;2.342301;48.847502, 2.342301
1;8514;EPEE DE BOIS;ILE-DE-FRANCE;100 RUE MOUFFETARD;75105;Paris 5e Arrondissement;58050;75;00851;Paris;10949158;01-Paris;2;140;53;3470;39819;23338;70,6187334;De 30 à 40 000 entrées;;OUI;A;;FIXE;NON;C;202;99;13;68,67555196;3,548215776;18,65152626;9,124706001;145;73,08616373;48.841535;2.34958;48.841535, 2.34958
1;8531;LE GRAND ACTION;ILE-DE-FRANCE;5 RUE DES ECOLES;75105;Paris 5e Arrondissement;58050;75;00851;Paris;10949158;01-Paris;3;363;53;4605;73786;27606;167,2824748;De 50 à 80 000 entrées;;OUI;A;RDPR;FIXE;NON;C;364;30;23;29,89629378;43,39085345;17,18803128;9,524821489;258;81,82732631;48.847537;2.352122;48.847537, 2.352122
1;9452;LE LOUXOR;ILE-DE-FRANCE;170 BOULEVARD DE MAGENTA;75110;Paris 10e Arrondissement;83873;75;00851;Paris;10949158;01-Paris;3;556;53;6115;195136;109882;77,58686591;De 150 à 200 000 entrées;;OUI;A;RDJPPR;FIXE;NON;C;302;96;61;63,29906797;10,82844824;9,427342752;16,44514103;237;91,27042117;48.883487;2.349853;48.883487, 2.349853
1;9802;CLUB DE L ETOILE;ILE-DE-FRANCE;14 RUE TROYON;75117;Paris 17e Arrondissement;167765;75;00851;Paris;10949158;01-Paris;1;161;37;103;6346;3022;109,9933819;De 5 à 10 000 entrées;;NON;NON;;FIXE;NON;C;59;15;1;34,84908658;40,52819698;13,20492454;11,4177919;25;45,41302621;48.876113;2.295345;48.876113, 2.295345
1;9920;PATHE;ILE-DE-FRANCE;30 AVENUE CORENTIN CARIOU;75119;Paris 19e Arrondissement;184156;75;00851;Paris;10949158;01-Paris;16;2901;53;24999;400696;282502;41,83828787;De 300 à 450 000 entrées;PATHE-GAUMONT;NON;NON;;FIXE;OUI;C;339;231;180;14,35451047;64,36030345;13,30320982;7,981976264;96;4,268925427;48.897016;2.385181;48.897016, 2.385181
2;20931;LE SELECT;ILE-DE-FRANCE;10 AV DIVISION LECLERC;92002;Antony;63639;92;00851;Paris;10949158;02-Petite Couronne;4;665;49;6035;164014;103115;59,05930272;De 150 à 200 000 entrées;;OUI;C;RDJPPR;FIXE;NON;B;432;322;190;67,6733079;13,09380522;11,92668186;7,306205024;319;59,7326436;48.753029;2.304782;48.753029, 2.304782
2;23301;JEAN GABIN;ILE-DE-FRANCE;12-14 BOULEVARD LEON FEIX;95018;Argenteuil;109058;95;00851;Paris;10949158;03-Grande couronne;1;128;48;795;8196;4030;103,3746898;De 5 à 10 000 entrées;;OUI;C;RDJP;FIXE;NON;B;145;101;2;56,42372881;19,76271186;13,16949153;10,6440678;109;66,93220339;48.946909;2.249331;48.946909, 2.249331
2;30184;UGC CINE CITE O'PARINOR;ILE-DE-FRANCE;LE HAUT DE GALY;93005;Aulnay-sous-Bois;86873;93;00851;Paris;10949158;02-Petite Couronne;14;2590;53;25668;499614;312659;59,79517621;De 450 à 700 000 entrées;UGC;NON;NON;;FIXE;OUI;B;289;160;159;21,41022433;62,79302095;11,31983303;4,476921691;80;1,55497052;48.960325;2.473606;48.960325, 2.473606
2;45132;BEAUMONT PALACE;ILE-DE-FRANCE;6 AV ANATOLE FRANCE;95052;Beaumont-sur-Oise;9671;95;00459;Persan - Beaumont-sur-Oise;39344;03-Grande couronne;1;353;50;1029;19019;11229;69,37394247;De 10 à 20 000 entrées;;OUI;D;JPPR;FIXE;NON;C;265;197;2;67,68092634;12,02959151;8,086201351;12,2032808;150;68,69089739;49.141412;2.283076;49.141412, 2.283076
2;71901;LE RENAISSANCE;ILE-DE-FRANCE;16 RUE DE L EGLISE;77051;Bray-sur-Seine;2355;77;77116;Bray-sur-Seine;3391;03-Grande couronne;1;105;53;349;5343;2511;112,7837515;De 5 à 10 000 entrées;;OUI;E;;FIXE;NON;C;171;132;2;52,03879215;26,73572845;16,53074719;4,694732202;91;41,08441702;48.415251;3.237856;48.415251, 3.237856
2;91492;CINEMA DU THEATRE;ILE-DE-FRANCE;8 AVENUE CHARLES DE GAULLE;78126;La Celle-Saint-Cloud;20889;78;00851;Paris;10949158;03-Grande couronne;1;319;44;253;10344;4456;132,1364452;De 10 à 20 000 entrées;;NON;NON;;FIXE;NON;B;191;140;1;57,02462239;13,46989448;25,65694186;3,848541279;112;66,35630043;48.847416;2.136047;48.847416, 2.136047
2;114042;MY CINE;ILE-DE-FRANCE;SHOPPING PROMENADE 3 RUE ROBERT SCHUMAN;77118;Claye-Souilly;12435;77;77302;Claye-Souilly;12435;03-Grande couronne;3;387;53;3687;128450;63696;101,6610148;De 100 à 150 000 entrées;;NON;NON;;FIXE;NON;I;90;78;50;21,21028037;63,95560748;12,02336449;2,810747664;11;0,35046729;48.947319;2.673824;48.947319, 2.673824
2;119305;PATHE;ILE-DE-FRANCE;RUE DE L'HAUTIL;78172;Conflans-Sainte-Honorine;36372;78;00851;Paris;10949158;03-Grande couronne;13;3105;53;21079;756769;472752;60,07737672;De 700 000 à 1 million d'entrées;PATHE-GAUMONT;NON;NON;;FIXE;OUI;B;313;246;193;24,92005248;58,02145697;13,7974574;3,261033158;106;4,141554731;49.004829;2.077668;49.004829, 2.077668
2;125135;L ETOILE;ILE-DE-FRANCE;1 ALLEE DU PROGRES;93027;La Courneuve;46951;93;00851;Paris;10949158;02-Petite Couronne;1;195;47;1086;18940;9703;95,19736164;De 10 à 20 000 entrées;;OUI;C;JPPR;FIXE;NON;B;250;128;3;34,81685703;34,48207956;14,99277931;15,7082841;168;50,98463962;48.926821;2.391627;48.926821, 2.391627
2;128535;LA LUCARNE MJC;ILE-DE-FRANCE;100 RUE JULIETTE SAVAR;94028;Créteil;92984;94;00851;Paris;10949158;02-Petite Couronne;1;92;48;1310;17349;7312;137,2675055;De 10 à 20 000 entrées;;OUI;C;JP;FIXE;NON;B;252;148;0;53,31074838;16,26116415;18,02433015;12,40375731;192;75,57745611;48.777428;2.466468;48.777428, 2.466468
2;154488;MEGA CGR;ILE-DE-FRANCE;PLACE DE L'AGORA - CE 169;91228;Évry;66543;91;00851;Paris;10949158;03-Grande couronne;10;2052;45;14637;151794;94643;60,38587112;De 150 à 200 000 entrées;CGR;NON;NON;;FIXE;OUI;B;213;141;132;15,06212615;59,7447612;9,922358813;15,27075383;22;1,889532964;48.627929;2.429517;48.627929, 2.429517
2;162853;CINEPARADIS;ILE-DE-FRANCE;10 AVENUE MARECHAL DE VILLARS;77186;Fontainebleau;16368;77;77406;Fontainebleau;38052;03-Grande couronne;6;1080;53;8815;129550;86459;49,83980846;De 100 à 150 000 entrées;;OUI;D;JPPR;FIXE;NON;C;213;156;147;32,44535519;50,29784598;13,34508832;3,91171051;70;9,722486974;48.400175;2.71613;48.400175, 2.71613
2;164022;THEATRE DE FONTENAY;ILE-DE-FRANCE;PLACE DU 8 MAI 1945;78242;Fontenay-le-Fleury;13682;78;00851;Paris;10949158;03-Grande couronne;1;346;16;196;3497;7612;-54,05937993;De 2 à 5 000 entrées;;OUI;C;JP;FIXE;NON;B;53;33;3;64,28794992;21,53364632;10,04694836;4,131455399;30;39,24882629;48.811271;2.045243;48.811271, 2.045243
2;172914;CINE GARCHES;ILE-DE-FRANCE;86 GRANDE RUE;92033;Garches;17960;92;00851;Paris;10949158;02-Petite Couronne;2;434;47;1123;18909;12182;55,2208176;De 10 à 20 000 entrées;;NON;NON;;FIXE;NON;B;204;175;30;61,02993585;21,23425992;12,88904728;4,846756949;103;40,87075315;48.844239;2.188722;48.844239, 2.188722
2;175513;CINEMA JEAN VIGO;ILE-DE-FRANCE;1 RUE PIERRE ET MARIE CURIE;92036;Gennevilliers;50096;92;00851;Paris;10949158;02-Petite Couronne;2;290;49;1987;39509;23631;67,19140113;De 30 à 40 000 entrées;;OUI;C;RDJPPR;FIXE;NON;B;321;214;13;48,64239168;26,4547845;12,97587744;11,92694638;218;63,3217103;48.928469;2.293206;48.928469, 2.293206
2;175794;LE LAVOIR NUMERIQUE;ILE-DE-FRANCE;10 RUE VICTOR MARQUIGNY;94037;Gentilly;18950;94;00851;Paris;10949158;02-Petite Couronne;1;90;20;30;130;22;490,9090909;Moins de 2000 entrées;;NON;NON;;FIXE;NON;B;30;2;0;62,30769231;24,61538462;10,76923077;2,307692308;25;91,53846154;48.815668;2.346427;48.815668, 2.346427
2;177201;LE CENTRAL;ILE-DE-FRANCE;SQUARE DE LA MAIRIE;91272;Gif-sur-Yvette;21996;91;00851;Paris;10949158;03-Grande couronne;1;155;49;1043;13485;7246;86,10267734;De 10 à 20 000 entrées;UGC;OUI;C;;FIXE;NON;B;84;66;34;77,7882132;4,946388041;10,5502074;6,715191359;54;61,3837364;48.701701;2.13387;48.701701, 2.13387
2;181553;THEATRE SARAH BERNHARDT;ILE-DE-FRANCE;82 BD PAUL VAILLANT COUTURIER;95280;Goussainville;31052;95;00851;Paris;10949158;03-Grande couronne;1;562;6;11;1111;;;Moins de 2000 entrées;;NON;NON;;FIXE;NON;B;4;0;0;37,56756757;0;0;62,43243243;4;100;49.03242;2.471796;49.03242, 2.471796
2;193442;LA TOURNELLE;ILE-DE-FRANCE;14 RUE DISPAN;94038;L' Haÿ-les-Roses;31847;94;00851;Paris;10949158;02-Petite Couronne;1;274;49;1128;29984;16925;77,15805022;De 20 à 30 000 entrées;;OUI;C;JP;FIXE;NON;B;253;188;4;59,88354621;18,70398197;15,90909091;5,503380917;148;46,13824192;48.779749;2.339014;48.779749, 2.339014
2;202562;PATHE;ILE-DE-FRANCE;5 RUE FRANCOIS MITTERRAND;94041;Ivry-sur-Seine;64248;94;00851;Paris;10949158;02-Petite Couronne;14;3830;53;20258;433480;315119;37,56073103;De 300 à 450 000 entrées;PATHE-GAUMONT;NON;NON;;FIXE;OUI;B;229;177;173;15,87104932;64,73378043;14,8039479;4,59122235;38;2,459335285;48.824074;2.387803;48.824074, 2.387803
2;211844;CINEMA LE CINQ;ILE-DE-FRANCE;5 RUE DELAMBRE;77243;Lagny-sur-Marne;21332;77;00851;Paris;10949158;03-Grande couronne;3;492;53;6237;96046;59826;60,54223916;De 80 à 100 000 entrées;;OUI;C;;FIXE;NON;B;261;191;79;48,08444435;38,25169083;10,11473887;3,549125953;132;17,48525249;48.879604;2.706124;48.879604, 2.706124
2;228122;ATELIER BARBARA;ILE-DE-FRANCE;22-24 RUE ALSACE LORRAINE;94044;Limeil-Brévannes;28391;94;00851;Paris;10949158;02-Petite Couronne;1;165;46;152;2910;2098;38,70352717;De 2 à 5 000 entrées;;NON;NON;;FIXE;NON;B;131;114;1;69,50215602;16,58173265;7,212857703;6,703253626;47;25,71540572;48.744182;2.503331;48.744182, 2.503331
2;229833;CINE MUNICIPAL YVES MONTAND;ILE-DE-FRANCE;36 RUE EUGENE MASSE;93046;Livry-Gargan;45818;93;00851;Paris;10949158;02-Petite Couronne;1;264;50;1075;27941;14100;98,16312057;De 20 à 30 000 entrées;;OUI;C;JP;FIXE;NON;B;189;150;0;60,21403467;25,60913004;8,865458279;5,311377009;83;29,41989496;48.92579;2.545121;48.92579, 2.545121
2;244700;MEGA CGR;ILE-DE-FRANCE;PLACE HENRI DUNANT;78361;Mantes-la-Jolie;44114;78;00851;Paris;10949158;03-Grande couronne;9;2053;53;17812;323667;196138;65,02003691;De 300 à 450 000 entrées;CGR;NON;NON;;FIXE;OUI;B;228;166;162;26,01956498;57,73312869;11,11173124;5,13557509;33;2,412911027;48.989664;1.715981;48.989664, 1.715981
2;264672;LA ROTONDE;ILE-DE-FRANCE;PLACE DU 14 JUILLET;77296;Moissy-Cramayel;18117;77;00851;Paris;10949158;03-Grande couronne;1;349;49;688;17062;10240;66,62109375;De 10 à 20 000 entrées;;OUI;C;JP;FIXE;NON;B;183;131;1;55,39310988;25,4918734;13,17365269;5,941364025;98;54,25771833;48.628281;2.589982;48.628281, 2.589982
2;273182;CENTRE PICASSO;ILE-DE-FRANCE;RUE GUY DE MAUPASSANT;95424;Montigny-lès-Cormeilles;22305;95;00851;Paris;10949158;03-Grande couronne;1;304;36;99;5593;3883;44,03811486;De 5 à 10 000 entrées;;NON;NON;;FIXE;NON;B;43;15;0;51,35069947;29,61890979;4,389773275;14,64061746;21;60,66087795;48.997001;2.200873;48.997001, 2.200873
2;274702;L'EDEN;ILE-DE-FRANCE;5 RUE DE PONTOISE;95428;Montmorency;21942;95;00851;Paris;10949158;03-Grande couronne;2;222;52;2161;28001;17342;61,46349902;De 20 à 30 000 entrées;;OUI;C;JPPR;FIXE;NON;B;288;203;67;67,9849196;15,02654459;9,998461183;6,990074633;182;60,2677541;48.988818;2.318091;48.988818, 2.318091
2;288024;LA FAUVETTE;ILE-DE-FRANCE;21 AV DANIEL PERDRIGE;93049;Neuilly-Plaisance;21059;93;00851;Paris;10949158;02-Petite Couronne;1;146;50;1266;19011;11310;68,09018568;De 10 à 20 000 entrées;;OUI;C;JP;FIXE;NON;B;240;173;1;63,7592551;16,63675118;11,30805475;8,295938972;142;53,2533094;48.87311;2.510505;48.87311, 2.510505
2;291891;ROYAL PALACE;ILE-DE-FRANCE;165 GRANDE RUE CHARLES DE GAULLE;94052;Nogent-sur-Marne;33820;94;00851;Paris;10949158;02-Petite Couronne;6;815;53;9566;160839;104989;53,19604911;De 150 à 200 000 entrées;;OUI;C;JP;FIXE;NON;B;346;237;168;47,47178956;36,02605205;11,91654255;4,585615833;201;24,93310277;48.838331;2.489437;48.838331, 2.489437
2;299572;CINEMA JACQUES TATI;ILE-DE-FRANCE;14 AVENUE SAINT LAURENT;91471;Orsay;15890;91;00851;Paris;10949158;03-Grande couronne;3;339;53;3637;52423;32868;59,49555799;De 50 à 80 000 entrées;;OUI;C;RDJPPR;FIXE;NON;B;388;248;64;57,68216156;17,25088932;15,24641273;9,820536392;291;73,93181182;48.698781;2.189727;48.698781, 2.189727
2;305402;ESPACE DES ARTS;ILE-DE-FRANCE;PLACE CHARLES DE GAULLE;93057;Les Pavillons-sous-Bois;24003;93;00851;Paris;10949158;02-Petite Couronne;1;329;51;1215;41827;24493;70,77124076;De 40 à 50 000 entrées;;OUI;C;;FIXE;NON;B;244;194;1;56,64523044;26,68006431;9,17738478;7,497320472;121;36,20310825;48.903037;2.507379;48.903037, 2.507379
2;307692;CENTRE DES BORDS DE MARNE;ILE-DE-FRANCE;2 RUE DE LA PRAIRIE;94058;Le Perreux-sur-Marne;33981;94;00851;Paris;10949158;02-Petite Couronne;1;198;47;1084;38710;20962;84,66749356;De 30 à 40 000 entrées;;OUI;C;;FIXE;NON;B;218;156;30;69,17460229;16,7217302;9,964185569;4,13948194;132;51,90593853;48.84694;2.509968;48.84694, 2.509968
2;327945;UGC CINE CITE LA DEFENSE;ILE-DE-FRANCE;LE DOME;92062;Puteaux;44275;92;00851;Paris;10949158;02-Petite Couronne;16;3645;53;29433;907557;570610;59,05031458;De 700 000 à 1 million d'entrées;UGC;NON;NON;;FIXE;OUI;B;468;280;253;29,79487842;51,01435266;13,33086159;5,859907332;233;15,23388319;48.876233;2.242749;48.876233, 2.242749
2;327961;LE CENTRAL;ILE-DE-FRANCE;134 RUE DE LA REPUBLIQUE;92062;Puteaux;44275;92;00851;Paris;10949158;02-Petite Couronne;2;480;48;2512;37805;25296;49,45050601;De 30 à 40 000 entrées;;NON;NON;;FIXE;NON;B;152;105;30;39,4384721;44,92795059;11,95105215;3,68252516;66;20,17955169;48.885137;2.239127;48.885137, 2.239127
2;353531;C2L CIN'HOCHE;ILE-DE-FRANCE;6 RUE HOCHE;78586;Sartrouville;52158;78;00851;Paris;10949158;03-Grande couronne;5;436;53;7210;97327;61613;57,96503985;De 80 à 100 000 entrées;UGC;NON;NON;;FIXE;NON;B;193;125;99;46,07164655;39,60318199;11,17110966;3,154061799;78;15,19928829;48.937892;2.159419;48.937892, 2.159419
2;362414;CINE SEL;ILE-DE-FRANCE;47 GRANDE RUE;92072;Sèvres;23472;92;00851;Paris;10949158;02-Petite Couronne;1;380;48;395;19643;10657;84,32016515;De 10 à 20 000 entrées;;OUI;C;;FIXE;NON;B;152;116;1;71,81986221;9,830280625;10,61446256;7,735394612;103;73,74670924;48.82472689999999;2.21509930000002;48.82472689999999, 2.21509930000002
2;370411;LE CAPITOLE;ILE-DE-FRANCE;3 RUE LEDRU ROLLIN;92073;Suresnes;49992;92;00851;Paris;10949158;02-Petite Couronne;4;644;53;7479;103316;69033;49,66175597;De 100 à 150 000 entrées;;OUI;C;JPPR;FIXE;NON;B;251;157;136;55,69316289;29,47385631;10,67921482;4,153765979;154;37,19281036;48.871363;2.229109;48.871363, 2.229109
2;381941;GAUMONT;ILE-DE-FRANCE;8 RUE DU MONDIAL 1998;93066;Saint-Denis;114027;93;00851;Paris;10949158;02-Petite Couronne;9;1513;53;12507;190269;114951;65,52183104;De 150 à 200 000 entrées;PATHE-GAUMONT;NON;NON;;FIXE;OUI;B;207;98;84;7,109595089;48,64031031;8,479796493;35,77029811;14;0,587604592;48.925395;2.363117;48.925395, 2.363117
2;390452;LES TOILES OLYMPIC;ILE-DE-FRANCE;PLACE FRANCOIS TRUFFAUT;95555;Saint-Gratien;21060;95;00851;Paris;10949158;03-Grande couronne;3;371;50;3599;51038;29894;70,72991236;De 50 à 80 000 entrées;;OUI;C;RDJPPR;FIXE;NON;B;237;136;81;62,84353493;16,12962035;7,848320496;13,17852422;213;91,6685657;48.971269;2.274468;48.971269, 2.274468
2;404603;LE LIDO;ILE-DE-FRANCE;70 AV DE LA REPUBLIQUE;94068;Saint-Maur-des-Fossés;75449;94;00851;Paris;10949158;02-Petite Couronne;1;425;52;1535;40466;22365;80,93449586;De 40 à 50 000 entrées;;OUI;C;RDJPPR;FIXE;NON;B;276;163;75;70,85007484;9,587961869;9,215052916;10,34691037;235;85,81895533;48.798427;2.485821;48.798427, 2.485821
2;422871;STUDIO CINE;ILE-DE-FRANCE;207 RUE DE PARIS;95607;Taverny;26773;95;00851;Paris;10949158;03-Grande couronne;2;329;53;3027;25578;14308;78,76712329;De 20 à 30 000 entrées;;NON;NON;;FIXE;NON;B;243;186;21;59,74893963;23,37089242;7,85313397;9,027033975;117;33,02771946;49.026312;2.224754;49.026312, 2.224754
2;432832;CINEMA LE GRENIER A SEL;ILE-DE-FRANCE;PLACE DU 8 MAI 1945;78621;Trappes;33527;78;00851;Paris;10949158;03-Grande couronne;1;218;47;894;15583;9568;62,86580268;De 10 à 20 000 entrées;;OUI;C;JP;FIXE;NON;B;199;145;2;58,94708129;18,92389525;13,7547736;8,374249864;136;64,98908893;48.780183;1.992423;48.780183, 1.992423
2;437562;UGC LES ULIS;ILE-DE-FRANCE;CENTRE COMMERCIAL LES ULIS 2;91692;Les Ulis;25299;91;00851;Paris;10949158;03-Grande couronne;4;649;53;5239;39904;28615;39,45133671;De 30 à 40 000 entrées;UGC;NON;NON;;FIXE;NON;B;95;87;85;32,00431034;52,84182037;11,18434242;3,969526864;2;0,498696872;48.675884;2.175597;48.675884, 2.175597
2;439271;LES VARIETES;ILE-DE-FRANCE;72 RUE DE CHELLES;77479;Vaires-sur-Marne;13450;77;00851;Paris;10949158;03-Grande couronne;1;311;47;380;9572;4203;127,742089;De 5 à 10 000 entrées;;NON;NON;;FIXE;NON;B;109;92;1;77,92579544;14,7858637;5,956181878;1,332158978;36;24,76054167;48.874168;2.632366;48.874168, 2.632366
2;448802;ESPACE MAURICE BEJART;ILE-DE-FRANCE;3 BLVD ANDRE MALRAUX;78642;Verneuil-sur-Seine;16283;78;00851;Paris;10949158;03-Grande couronne;1;312;49;810;20692;9479;118,2930689;De 20 à 30 000 entrées;;NON;NON;;FIXE;NON;B;214;177;1;63,51052632;16,47368421;15,62631579;4,389473684;98;27,31052632;48.979213;1.97461;48.979213, 1.97461
2;456762;CINEMA D ART ROMAIN ROLLAND;ILE-DE-FRANCE;18 RUE EUGENE VARLIN;94076;Villejuif;56585;94;00851;Paris;10949158;02-Petite Couronne;1;616;47;314;19424;8847;119,5546513;De 10 à 20 000 entrées;;NON;NON;;FIXE;NON;B;119;104;0;66,05873441;20,55121781;10,3193101;3,070737676;72;55,52383172;48.793428;2.363199;48.793428, 2.363199
2;457983;ESPACE CULTUREL;ILE-DE-FRANCE;56BIS AVENUE CARNOT;94077;Villeneuve-le-Roi;21493;94;00851;Paris;10949158;02-Petite Couronne;1;448;12;15;1409;1420;-0,774647887;Moins de 2000 entrées;;NON;NON;;FIXE;NON;B;15;11;0;80,05677786;5,819730305;14,12349184;0;1;4,897090135;48.735355;2.416829;48.735355, 2.416829
2;469245;CINEMA PARADISO;ILE-DE-FRANCE;2 RUE MARC SANGNIER;91691;Yerres;29325;91;00851;Paris;10949158;03-Grande couronne;1;214;53;1139;25315;13657;85,3628176;De 20 à 30 000 entrées;;OUI;C;;FIXE;NON;B;225;152;7;65,90827158;20,9172842;9,693570999;3,480873223;130;38,61806529;48.714932;2.489765;48.714932, 2.489765
2;720300;UGC CINE CITE;ILE-DE-FRANCE;CENTRE COMMERCIAL CRETEIL SOLEIL;94028;Créteil;92984;94;00851;Paris;10949158;02-Petite Couronne;18;3710;53;36383;626495;348354;79,84435373;De 450 à 700 000 entrées;UGC;NON;NON;;FIXE;OUI;B;494;299;278;31,39055185;51,99426919;11,75982424;4,855354722;238;11,65860772;48.797186;2.469391;48.797186, 2.469391
2;723680;CGR MY PLACE SARCELLES;ILE-DE-FRANCE;2 ALLEE HENRI DUNANT;95585;Sarcelles;58715;95;00851;Paris;10949158;03-Grande couronne;10;1817;53;20527;306705;171721;78,60657695;De 300 à 450 000 entrées;CGR;NON;NON;;FIXE;OUI;B;250;169;163;19,79071258;58,18275194;10,06529192;11,96124356;24;1,192329835;48.984111;2.372423;48.984111, 2.372423
2;724920;STARS - PREMIERE CINEMAS;ILE-DE-FRANCE;13 AVENUE CHARLES DE GAULLE;91021;Arpajon;11266;91;00851;Paris;10949158;03-Grande couronne;5;527;12;1331;14254;;;De 10 à 20 000 entrées;;NON;NON;;FIXE;NON;B;75;63;28;44,10987074;54,81051704;0,212984724;0,866627497;36;19,6827262;48.590692;2.250123;48.590692, 2.250123
3;14033;LE CASINO;HAUTS DE FRANCE;29 RUE DE BOULAN;80016;Albert;9983;80;80301;Albert;9983;06-autres communes et unités urbaines;2;360;51;2413;39160;23043;69,94314976;De 30 à 40 000 entrées;;NON;NON;;FIXE;NON;I;186;141;60;43,16114468;39,50932873;14,15576655;3,173760042;56;13,02370361;50.004652;2.648257;50.004652, 2.648257
3;15682;SALLE POLYVALENTE;PAYS DE LA LOIRE;SALLE POLYVALENTE;72003;Allonnes;11207;72;72701;Le Mans;217388;04-Unités urbaines de 100 000 hbts ou plus;1;600;50;886;28654;9610;198,1685744;De 20 à 30 000 entrées;;NON;NON;;ITINERANT;NON;B;156;104;4;72,01825989;24,5966962;2,553290263;0,831753646;71;35,29730357;47.983405;0.148339;47.983405, 0.148339
3;16803;CINEA;CENTRE-VAL DE LOIRE;3 PLACE ST DENIS;37003;Amboise;12936;37;37701;Tours;366772;04-Unités urbaines de 100 000 hbts ou plus;2;354;53;1879;31748;20698;53,38680066;De 30 à 40 000 entrées;;NON;NON;;FIXE;NON;B;140;96;56;50,36082301;38,2371698;8,230121169;3,171886013;53;20,20273219;47.41057;0.980035;47.41057, 0.980035
3;23241;NORMANDY;NORMANDIE;13 RUE MEHEUDIN;61006;Argentan;13765;61;61302;Argentan;15072;06-autres communes et unités urbaines;3;534;52;2369;39810;28303;40,65646751;De 30 à 40 000 entrées;;OUI;E;JP;FIXE;NON;C;199;161;93;49,65108348;35,52914634;11,48801091;3,331759274;77;13,74153943;48.745411;-0.019397;48.745411, -0.019397
3;23513;EDEN PALACE;CENTRE-VAL DE LOIRE;8 RUE BARBES;36006;Argenton-sur-Creuse;5077;36;36203;Argenton-sur-Creuse;8498;06-autres communes et unités urbaines;1;187;53;745;20571;13931;47,66348432;De 20 à 30 000 entrées;;OUI;E;JP;FIXE;NON;C;207;164;0;60,83813515;24,88213724;8,569931902;5,709795705;102;34,53116815;46.588805;1.51986;46.588805, 1.51986
3;33122;VAUBAN;BOURGOGNE-FRANCHE-COMTE;1 RUE DU MARECHAL FOCH;89025;Avallon;6635;89;89203;Avallon;6635;06-autres communes et unités urbaines;2;330;53;2183;33212;4162;697,9817395;De 30 à 40 000 entrées;;OUI;E;JP;FIXE;NON;I;349;264;34;50,24532304;34,83587098;10,73406983;4,184736159;191;32,24019499;47.490254;3.909327;47.490254, 3.909327
3;39662;SELECT;NORMANDIE;AV DE LA REPUBLIQUE;50031;Barneville-Carteret;2268;50;00000;Zone rurale;14908533;04-Unités urbaines de 100 000 hbts ou plus;1;270;47;572;17304;12403;39,51463356;De 10 à 20 000 entrées;;OUI;E;;FIXE;NON;R;155;136;17;64,04781246;24,91006151;8,187304166;2,854821864;71;23,55228038;49.380918;-1.77881;49.380918, -1.77881
3;45372;CINEMA JEANNE D ARC;PAYS DE LA LOIRE;RUE JEANNE D ARC;49023;Beaupréau-en-Mauges;24167;49;49206;Beaupréau;24167;05-Unités urbaines de 20 000 à 100 000 hbts;1;160;53;483;12612;5445;131,6253444;De 10 à 20 000 entrées;;OUI;D;;FIXE;NON;I;233;180;2;55,29973208;28,14802411;13,02746149;3,524782317;106;30,85231078;47.20201;-0.995912;47.20201, -0.995912
3;49632;CINEMARINE;BRETAGNE;AVENUE DE LA PLAGE;29006;Bénodet;3775;29;29402;Fouesnant;26245;05-Unités urbaines de 20 000 à 100 000 hbts;2;326;53;2433;33415;21173;57,81892032;De 30 à 40 000 entrées;;OUI;D;;FIXE;NON;B;219;195;128;73,32686712;18,76515519;5,48314743;2,424830262;112;32,52000485;47.874121;-4.110036;47.874121, -4.110036
3;57221;CINEMA ST LAURENT;PAYS DE LA LOIRE;9 RUE DU 11 NOVEMBRE;44015;Blain;10261;44;44213;Blain;10261;06-autres communes et unités urbaines;1;285;48;590;18968;12484;51,93848126;De 10 à 20 000 entrées;;OUI;E;;FIXE;NON;I;199;151;19;51,77131416;33,38523998;12,50208553;2,341360325;72;22,07329959;47.476369;-1.763766;47.476369, -1.763766
3;68562;ABBAYE DE BOURGUEIL;CENTRE-VAL DE LOIRE;AVENUE ARTHUR-LE-JOUTEUX;37031;Bourgueil;3897;37;37201;Bourgueil;5998;06-autres communes et unités urbaines;1;380;50;181;2859;1519;88,21593153;De 2 à 5 000 entrées;;NON;NON;;FIXE;NON;C;63;51;2;67,75096187;20,21685904;8,114725428;3,917453655;19;15,84470094;47.281285;0.171088;47.281285, 0.171088
3;73083;CINE LIBERTE;BRETAGNE;10 AVENUE GEORGES CLEMENCEAU;29019;Brest;142110;29;29701;Brest;207101;04-Unités urbaines de 100 000 hbts ou plus;15;2440;53;23390;477564;308988;54,55745854;De 450 à 700 000 entrées;PATHE-GAUMONT;NON;NON;;FIXE;OUI;C;349;261;213;31,42925035;51,77622004;13,29767598;3,496853638;131;5,345845232;48.39126;-4.488243;48.39126, -4.488243
3;84292;DUGUESCLIN;BRETAGNE;5 IMPASSE ST MEEN;35049;Cancale;5405;35;35203;Cancale;5405;06-autres communes et unités urbaines;1;228;53;398;12944;7711;67,86409026;De 10 à 20 000 entrées;;OUI;E;;FIXE;NON;I;207;178;6;71,46755876;12,81802976;10,46747073;5,246940752;116;51,8355489;48.676977;-1.85005;48.676977, -1.85005
3;84981;ESPACE CULTUREL FRANCOIS MITTERRAND;NORMANDIE;PARC GEORGES PIERRE;76157;Canteleu;14157;76;00755;Rouen;481277;04-Unités urbaines de 100 000 hbts ou plus;1;170;52;131;3913;1415;176,5371025;De 2 à 5 000 entrées;;NON;NON;;FIXE;NON;B;62;40;0;47,24660814;37,48337324;3,990422985;11,27959564;20;42,32508646;49.452077;1.037664;49.452077, 1.037664
3;86313;LE COTENTIN;NORMANDIE;RUE HOLGATE;50099;Carentan les Marais;10389;50;50204;Carentan;10389;06-autres communes et unités urbaines;2;316;53;2177;24902;15578;59,85363975;De 20 à 30 000 entrées;;OUI;E;;FIXE;NON;C;267;200;50;50,32875812;36,08942221;10,53258815;3,049231528;141;14,98315115;49.302896;-1.247604;49.302896, -1.247604
3;86353;LE GRAND BLEU;BRETAGNE;CENTRE CULTUREL;29024;Carhaix-Plouguer;7773;29;00271;Carhaix-Plouguer;9523;06-autres communes et unités urbaines;1;215;53;1001;24567;17014;44,39285294;De 20 à 30 000 entrées;;OUI;E;JPPR;FIXE;NON;C;318;243;37;47,35055546;35,91518251;10,65067889;6,083583142;165;27,44665844;48.283143;-3.572343;48.283143, -3.572343
3;86561;REX;BRETAGNE;21 AVENUE MILN;56034;Carnac;4337;56;56215;Carnac;8360;06-autres communes et unités urbaines;2;422;49;1483;29482;16837;75,10245293;De 20 à 30 000 entrées;;OUI;E;;FIXE;NON;C;150;135;51;62,9967538;27,08696395;7,712284299;2,20399795;70;24,74286691;47.572383;-3.075775;47.572383, -3.075775
3;89481;LE PARIS;NORMANDIE;3 RUE ARISTIDE CAUCHOIS;76164;Rives-en-Seine;4158;76;76105;Caudebec-en-Caux;4158;06-autres communes et unités urbaines;1;386;53;831;11665;6325;84,42687747;De 10 à 20 000 entrées;;OUI;E;;FIXE;NON;I;211;184;24;51,39539071;34,38062658;12,45048614;1,773496579;113;25,31508822;49.525593;0.72697;49.525593, 0.72697
3;94922;ESPACE CINE;PAYS DE LA LOIRE;RUE FELIX FAURE;49063;Chalonnes-sur-Loire;6649;49;49203;Chalonnes-sur-Loire;6649;06-autres communes et unités urbaines;1;274;50;433;11962;7414;61,34340437;De 10 à 20 000 entrées;;OUI;E;;FIXE;NON;I;246;211;0;69,56948035;14,52892415;10,74962118;5,151974329;141;37,11560745;47.353192;-0.764716;47.353192, -0.764716
3;99631;JACQUES DEMY;PAYS DE LA LOIRE;RUE DU STADE;44029;Divatte-sur-Loire;7162;44;44120;La Chapelle-Basse-Mer;7162;06-autres communes et unités urbaines;1;189;49;316;7559;4289;76,24154815;De 5 à 10 000 entrées;;OUI;E;;FIXE;NON;I;181;152;1;74,93782004;14,55742502;7,256766642;3,247988296;107;37,99561083;47.270881;-1.337067;47.270881, -1.337067
3;104391;AGORA;BRETAGNE;5 PLACE DE LA RESISTANCE;29026;Châteaulin;5578;29;29204;Châteaulin;5983;06-autres communes et unités urbaines;1;194;53;796;18017;11111;62,15462155;De 10 à 20 000 entrées;;OUI;E;;FIXE;NON;C;262;222;7;55,91340132;28,30560029;11,29599809;4,485000298;133;36,41677104;48.194912;-4.094078;48.194912, -4.094078
3;104863;APOLLO;CENTRE-VAL DE LOIRE;4 RUE ALBERT 1ER;36044;Châteauroux;44890;36;36501;Châteauroux;62482;05-Unités urbaines de 20 000 à 100 000 hbts;1;328;49;1548;28743;13062;120,0505282;De 20 à 30 000 entrées;;OUI;D;RDJPPR;FIXE;NON;C;198;105;17;70,42625424;9,665115889;9,774089442;10,13454042;182;96,52961147;46.810828;1.697689;46.810828, 1.697689
3;106291;LUX;CENTRE-VAL DE LOIRE;PLACE DE L'HOTEL DE VILLE;36046;La Châtre;4165;36;36202;La Châtre;6807;06-autres communes et unités urbaines;1;193;48;408;9161;5685;61,14335972;De 5 à 10 000 entrées;;OUI;E;;FIXE;NON;C;102;82;5;64,98054475;20,55390249;6,923781186;7,541771572;37;35,15678645;48.7407435;2.764804799999979;48.7407435, 2.764804799999979
3;130633;REX;BRETAGNE;41 43 RUE DE LA CHALOTAIS;29042;Crozon;7575;29;29212;Crozon;7575;06-autres communes et unités urbaines;1;177;53;779;19762;11648;69,66002747;De 10 à 20 000 entrées;;OUI;E;;FIXE;NON;I;213;174;53;52,46256064;32,37713563;10,25627505;4,904028686;98;30,17295929;48.242699;-4.494348;48.242699, -4.494348
3;133141;LES CARDINAUX;BRETAGNE;AVENUE PRAT GODET;56052;Damgan;1937;56;00000;Zone rurale;14908533;04-Unités urbaines de 100 000 hbts ou plus;1;151;53;404;10685;7096;50,5777903;De 10 à 20 000 entrées;;OUI;E;;FIXE;NON;R;186;157;3;61,47845115;32,03310817;3,177623442;3,310817239;80;17,46741509;47.520393;-2.585183;47.520393, -2.585183
3;138345;D S N  DIEPPE SCENE NATIONALE;NORMANDIE;QUAI BERIGNY;76217;Dieppe;28535;76;76404;Dieppe;35913;05-Unités urbaines de 20 000 à 100 000 hbts;1;578;53;976;25652;14028;82,86284574;De 20 à 30 000 entrées;;OUI;D;RDJPPR;FIXE;NON;C;219;114;13;69,18558634;10,13538846;12,50156217;8,177463029;180;84,38658613;49.923374;1.081518;49.923374, 1.081518
3;138922;2 ALIZES SALLE LA MOUETTE;BRETAGNE;2 BD ALBERT 1ER;35093;Dinard;10755;35;00458;Dinard;35626;05-Unités urbaines de 20 000 à 100 000 hbts;2;499;52;1963;38906;26364;47,57244728;De 30 à 40 000 entrées;;OUI;D;;FIXE;NON;C;225;170;121;70,04176188;7,044362146;16,87022299;6,043652982;157;72,02479447;48.635211;-2.055645;48.635211, -2.055645
3;139232;LE DRAKKAR;NORMANDIE;6 RUE DU GENERAL DE GAULLE;14225;Dives-sur-Mer;5403;14;14402;Dives-sur-Mer;33981;05-Unités urbaines de 20 000 à 100 000 hbts;1;290;52;967;21996;12794;71,92433953;De 20 à 30 000 entrées;;OUI;D;JP;FIXE;NON;C;183;135;9;65,32882972;19,07411087;8,429366183;7,167693225;108;42,171667;49.286704;-0.099295;49.286704, -0.099295
3;142995;CINE CENTRE;CENTRE-VAL DE LOIRE;5 ESPLANADE DU CHAMP DE FOIRE;28134;Dreux;31239;28;28401;Dreux;49488;05-Unités urbaines de 20 000 à 100 000 hbts;9;1544;53;14920;231300;149620;54,59163213;De 200 à 300 000 entrées;;OUI;D;JPPR;FIXE;OUI;C;422;274;223;32,25738304;50,88024295;13,05708376;3,80529026;195;10,53782844;48.731866;1.361178;48.731866, 1.361178
3;154444;CINEMA YVES ROBERT;PAYS DE LA LOIRE;34 RUE DE LA FONTAINE;53097;Évron;8896;53;53203;Évron;8896;06-autres communes et unités urbaines;3;447;53;2931;32961;23525;40,11052072;De 30 à 40 000 entrées;;OUI;E;JPPR;FIXE;NON;I;324;236;25;51,5885366;33,43059068;11,46988264;3,51099008;176;21,7532257;48.155173;-0.401505;48.155173, -0.401505
3;157231;LE GRAND LARGE;NORMANDIE;PLACE BELLET;76259;Fécamp;18334;76;76403;Fécamp;20070;05-Unités urbaines de 20 000 à 100 000 hbts;4;710;53;5418;89355;65655;36,09778387;De 80 à 100 000 entrées;;OUI;D;JP;FIXE;NON;C;350;238;109;43,84864195;42,02605983;10,51913195;3,606166269;197;13,05170674;49.757837;0.37728;49.757837, 0.37728
3;158801;JEAN RACINE;HAUTS DE FRANCE;1 RUE JEAN RACINE;02307;La Ferté-Milon;2190;02;02107;La Ferté-Milon;2190;06-autres communes et unités urbaines;1;119;49;437;4488;2582;73,81874516;De 2 à 5 000 entrées;;NON;NON;;FIXE;NON;I;161;133;1;60,73496099;24,54064938;10,82305563;3,901334005;53;38,50994211;49.174952;3.127739;49.174952, 3.127739
3;165383;ESPACE JEAN BAUCHET;NORMANDIE;RUE FRANCIS FER;76276;Forges-les-Eaux;3922;76;76201;Forges-les-Eaux;4902;06-autres communes et unités urbaines;1;699;8;19;1221;581;110,1549053;Moins de 2000 entrées;;NON;NON;;FIXE;NON;C;18;3;0;54,38165438;40,04914005;1,638001638;3,931203931;15;86,65028665;49.615296;1.54519;49.615296, 1.54519
3;178423;LE MANEGE;GRAND EST;PLACE JACQUES SOURDILLE;08190;Givet;6487;08;08206;Givet;8296;06-autres communes et unités urbaines;2;465;53;1350;21890;10637;105,7911065;De 20 à 30 000 entrées;;OUI;E;;FIXE;NON;C;176;140;31;26,18787677;55,82190155;14,87634689;3,11387478;54;12,21341434;50.135351;4.82068;50.135351, 4.82068
3;183301;GAUMONT;NORMANDIE;26 BD PIERRE BROSSOLETTE;76322;Le Grand-Quevilly;26269;76;00755;Rouen;481277;04-Unités urbaines de 100 000 hbts ou plus;16;3828;53;25383;513664;330809;55,27509832;De 450 à 700 000 entrées;PATHE-GAUMONT;NON;NON;;FIXE;OUI;B;331;239;188;31,23956382;50,88565471;13,78614937;4,088632105;120;3,428359765;49.413966;1.041562;49.413966, 1.041562
3;183951;SELECT;NORMANDIE;7 BD D HAUTESERVE;50218;Granville;13230;50;50402;Granville;26939;05-Unités urbaines de 20 000 à 100 000 hbts;3;514;53;4430;85523;58938;45,10672232;De 80 à 100 000 entrées;;OUI;D;JP;FIXE;NON;C;314;218;115;53,00800783;33,1495471;10,14165861;3,700786462;169;24,87677968;48.837706;-1.594566;48.837706, -1.594566
3;187191;L ODEON;PAYS DE LA LOIRE;7 PLACE DE L EGLISE;44067;Guémené-Penfao;5322;44;44122;Guémené-Penfao;5322;06-autres communes et unités urbaines;1;165;52;286;5626;3295;70,74355083;De 5 à 10 000 entrées;;OUI;E;;FIXE;NON;I;138;104;1;62,63955343;24,14274322;10,92503987;2,292663477;33;14,87240829;47.630162;-1.8325;47.630162, -1.8325
3;187365;QUAI 56;BRETAGNE;AVENUE DU GENERAL DE GAULLE;56075;Guer;6378;56;56211;Guer;6944;06-autres communes et unités urbaines;1;184;51;616;11772;7113;65,49978912;De 10 à 20 000 entrées;;OUI;E;;FIXE;NON;C;236;190;3;43,58565737;35,87428066;15,68835768;4,851704294;112;25,66622399;47.907692;-2.118355;47.907692, -2.118355
3;188041;LE BRETAGNE;BRETAGNE;PEGUIN;35126;Guichen;8968;35;35213;Guichen;8968;06-autres communes et unités urbaines;2;284;53;840;25950;14299;81,48122246;De 20 à 30 000 entrées;;OUI;E;JPPR;FIXE;NON;I;290;232;17;62,33524703;23,76890111;10,70995391;3,185897954;162;40,65254306;47.990181;-1.796621;47.990181, -1.796621
3;188681;ALLIANCE;BRETAGNE;22 RUE DE VANNES;35176;Guipry-Messac;7323;35;35207;Guipry;7323;06-autres communes et unités urbaines;1;185;53;643;11479;7058;62,63814112;De 10 à 20 000 entrées;;OUI;E;JP;FIXE;NON;B;260;209;10;56,46556109;30,30827144;7,467697629;5,758469834;115;28,67026147;47.8255858;-1.8447579999999562;47.8255858, -1.8447579999999562
3;193373;GAUMONT;NORMANDIE;QUAI DES ANTILLES;76351;Le Havre;167658;76;76701;Le Havre;233828;04-Unités urbaines de 100 000 hbts ou plus;12;2412;53;18049;342856;220714;55,33948911;De 300 à 450 000 entrées;PATHE-GAUMONT;NON;NON;;FIXE;OUI;C;293;230;179;28,23296441;54,54767144;12,89953902;4,319825127;101;3,125798784;49.48976;0.131344;49.48976, 0.131344
3;193591;RIALTO;NORMANDIE;RUE DE LA LIBERATION;50236;La Haye;4078;50;50102;La Haye-du-Puits;4078;06-autres communes et unités urbaines;1;250;53;795;12937;9212;40,43638732;De 10 à 20 000 entrées;;OUI;E;JP;FIXE;NON;C;298;251;3;57,69196705;20,5561952;17,57151714;4,180320609;174;35,64786113;49.288956;-1.544392;49.288956, -1.544392
3;205213;CENTRE CULTUREL ESPACE MALRAUX;CENTRE-VAL DE LOIRE;ALLEE ANDRE MALRAUX;37122;Joué-lès-Tours;39143;37;37701;Tours;366772;04-Unités urbaines de 100 000 hbts ou plus;1;670;8;8;1002;396;153,030303;Moins de 2000 entrées;;NON;NON;;FIXE;NON;B;8;8;0;100;0;0;0;1;9,481037924;47.351751;0.6454439999999977;47.351751, 0.6454439999999977
3;213462;CINE PENTHIEVRE;BRETAGNE;18 BIS RUE DE BOUIN;22093;Lamballe;17169;22;22301;Lamballe;17169;06-autres communes et unités urbaines;1;210;53;371;14955;8234;81,62496964;De 10 à 20 000 entrées;;NON;NON;;FIXE;NON;I;139;102;1;57,06334274;23,7456883;14,98902477;4,201944183;46;46,20570712;48.46778;-2.510319;48.46778, -2.510319
3;213933;LE MELIES;CENTRE-VAL DE LOIRE;3 RUE GAUGIRAN;41106;Lamotte-Beuvron;4666;41;41110;Lamotte-Beuvron;4666;06-autres communes et unités urbaines;1;168;50;448;9734;6579;47,95561636;De 5 à 10 000 entrées;;NON;NON;;FIXE;NON;I;138;101;14;61,6616509;25,77386071;10,98452279;1,579965606;50;18,1749785;47.60131;2.026127;47.60131, 2.026127
3;215502;ESPACE JEAN-HUGUES ANGLADE;CENTRE-VAL DE LOIRE;PLACE LEON BROYER;37123;Langeais;4411;37;37108;Langeais;4411;06-autres communes et unités urbaines;1;189;50;435;11207;6156;82,05003249;De 10 à 20 000 entrées;;OUI;E;JPPR;FIXE;NON;I;168;129;0;78,68046307;9,773588772;8,482737424;3,063210737;107;62,08380289;47.326633;0.408328;47.326633, 0.408328
3;229261;ROYAL;NORMANDIE;12 14 RUE DU 11 NOVEMBRE;14366;Lisieux;20366;14;14401;Lisieux;28443;05-Unités urbaines de 20 000 à 100 000 hbts;3;536;53;2388;46624;31034;50,23522588;De 40 à 50 000 entrées;;NON;NON;;FIXE;NON;C;85;75;67;30,57460852;53,4511022;12,65044649;3,323842802;4;0,791596566;49.143794;0.227798;49.143794, 0.227798
3;230152;VIGNY;CENTRE-VAL DE LOIRE;42 RUE BOURDILLET;37132;Loches;6691;37;37301;Loches;10678;06-autres communes et unités urbaines;2;503;50;767;19409;13353;45,35310417;De 10 à 20 000 entrées;;OUI;E;;FIXE;NON;C;138;120;24;67,89716546;20,91298616;7,481872116;3,707976269;49;25,0109866;47.129518;0.993278;47.129518, 0.993278
3;234801;LE GRAND FORUM;NORMANDIE;PLACE GEORGES MELIES;27375;Louviers;19022;27;27402;Louviers;44878;05-Unités urbaines de 20 000 à 100 000 hbts;4;561;53;4450;57199;40728;40,44146533;De 50 à 80 000 entrées;;NON;NON;;FIXE;NON;C;167;123;78;34,19068971;49,31593906;13,27166487;3,221706357;73;8,591805391;49.216151;1.170764;49.216151, 1.170764
3;235831;DRAKKAR;NORMANDIE;PLACE ABEL DOUCET;14384;Luc-sur-Mer;3301;14;14302;Douvres-la-Délivrande - Luc-sur-Mer;15136;06-autres communes et unités urbaines;1;340;20;121;2596;2112;22,91666667;De 2 à 5 000 entrées;;NON;NON;;FIXE;NON;C;37;36;0;60,92600606;31,32842925;6,750324535;0,995240156;8;18,26049329;49.310786;-0.361997;49.310786, -0.361997
3;248763;ESPACE CULTUREL BEAUMARCHAIS;NORMANDIE;13 RUE DE LA REPUBLIQUE;76410;Maromme;10971;76;00755;Rouen;481277;04-Unités urbaines de 100 000 hbts ou plus;1;245;36;81;4576;1686;171,4116251;De 2 à 5 000 entrées;;NON;NON;;FIXE;NON;B;46;26;1;63,3363269;26,44813651;8,913336327;1,302200269;16;35,47373148;49.479355;1.042864;49.479355, 1.042864
3;253763;VOX;PAYS DE LA LOIRE;16 PLACE JUHEL;53147;Mayenne;13495;53;53301;Mayenne;15715;06-autres communes et unités urbaines;3;374;53;4478;69367;47506;46,01734518;De 50 à 80 000 entrées;;OUI;E;RDJPPR;FIXE;NON;C;387;241;119;53,3933076;31,52144181;11,4108136;3,674436981;241;26,42008328;48.302362;-0.620404;48.302362, -0.620404
3;261032;LA FABRIQUE;CENTRE-VAL DE LOIRE;5 RUE DES MAUVES;45203;Meung-sur-Loire;6660;45;45209;Meung-sur-Loire;9776;06-autres communes et unités urbaines;1;143;45;110;5458;2956;84,64140731;De 5 à 10 000 entrées;;NON;NON;;FIXE;NON;C;95;70;0;54,96027704;27,15420656;11,34650642;6,539009982;34;33,28580159;47.826282;1.696401;47.826282, 1.696401
3;266361;UGC CINE CITE;NORMANDIE;RUE ERNEST COGNACQ;14437;Mondeville;10285;14;14601;Caen;206642;04-Unités urbaines de 100 000 hbts ou plus;12;2452;53;19755;399377;247394;61,43358368;De 300 à 450 000 entrées;UGC;NON;NON;;FIXE;OUI;B;307;154;150;38,69166344;47,99963826;10,49643537;2,812262923;94;3,090851542;49.166065;-0.30018;49.166065, -0.30018
3;270633;HOLLYWOOD AVENUE;HAUTS DE FRANCE;2 BIS,  AV PAUL DOUMER;80561;Montdidier;6152;80;80202;Montdidier;6313;06-autres communes et unités urbaines;1;178;53;774;20972;13481;55,56709443;De 20 à 30 000 entrées;;NON;NON;;FIXE;NON;C;147;111;6;43,06709265;41,82845908;12,0324404;3,072007864;32;16,36274269;49.647736;2.570756;49.647736, 2.570756
3;272101;LA CANE;BRETAGNE;13 BD CARNOT;35188;Montfort-sur-Meu;6917;35;35208;Montfort-sur-Meu;6917;06-autres communes et unités urbaines;1;264;49;581;26714;14143;88,88496076;De 20 à 30 000 entrées;;OUI;E;JP;FIXE;NON;I;239;185;17;62,22151114;24,98300068;9,855605776;2,939882405;107;27,50689972;48.134411;-1.950548;48.134411, -1.950548
3;274603;LE DON CAMILLO;GRAND EST;AV DE GAULLE/RUE DE LA MOLOTTE;51380;Montmirail;3609;51;51111;Montmirail;3609;06-autres communes et unités urbaines;2;288;53;1344;14361;9239;55,43890031;De 10 à 20 000 entrées;;OUI;E;;FIXE;NON;I;190;168;33;46,41749151;37,97459004;12,68281873;2,925099719;68;9,750332398;48.873643;3.534231;48.873643, 3.534231
3;276351;LE REGENT;CENTRE-VAL DE LOIRE;3 BD PHILIPPE AUGUSTE;41151;Montrichard Val de Cher;3716;41;41204;Montrichard;6739;06-autres communes et unités urbaines;1;195;53;858;24259;12300;97,22764228;De 20 à 30 000 entrées;;OUI;E;JPPR;FIXE;NON;C;273;206;18;56,71477603;26,02745754;12,43069612;4,827070316;152;30,7357212;47.343448;1.182804;47.343448, 1.182804
3;278231;RIALTO;BRETAGNE;3 RUE DE L HOSPICE;29151;Morlaix;15172;29;29403;Morlaix;26478;05-Unités urbaines de 20 000 à 100 000 hbts;3;697;53;3498;55628;38596;44,12892528;De 50 à 80 000 entrées;;NON;NON;;FIXE;NON;C;99;88;74;35,52804656;52,47671045;10,04018235;1,955060634;9;1,573058003;48.575673;-3.827938;48.575673, -3.827938
3;283551;SALLE JEANNE D ARC;BRETAGNE;RUE RENE BAZIN;56143;Muzillac;5181;56;56116;Muzillac;5181;06-autres communes et unités urbaines;1;186;53;424;9769;5984;63,25200535;De 5 à 10 000 entrées;;OUI;E;;FIXE;NON;I;197;166;3;60,47998323;24,10396143;11,44414169;3,971913645;75;26,0637183;47.555803;-2.484734;47.555803, -2.484734
3;288291;CIRCUIT 2;CENTRE-VAL DE LOIRE;CINEMOBILE;45142;Fay-aux-Loges;3860;45;45202;Fay-aux-Loges;6777;06-autres communes et unités urbaines;1;100;46;1111;27875;12030;131,7123857;De 20 à 30 000 entrées;;OUI;E;JPPR;ITINERANT;NON;C;106;59;1;64,4077566;23,12569476;8,897031578;3,569517065;54;41,17090041;47.940501;2.182716;47.940501, 2.182716
3;293121;CINEMA PARADISO;PAYS DE LA LOIRE;24 BD DE LA GARE;44110;Nort-sur-Erdre;9396;44;44209;Nort-sur-Erdre;9396;06-autres communes et unités urbaines;1;230;53;462;17093;8841;93,33785771;De 10 à 20 000 entrées;;OUI;E;JP;FIXE;NON;I;219;169;2;58,53152655;28,02820796;10,86836283;2,571902655;91;48,49280973;47.441735;-1.502661;47.441735, -1.502661
3;293801;CINE SOLOGNE;CENTRE-VAL DE LOIRE;CINE SOLOGNE;41161;Nouan-le-Fuzelier;2369;41;41104;Nouan-le-Fuzelier;2369;06-autres communes et unités urbaines;1;200;27;176;5284;2255;134,3237251;De 5 à 10 000 entrées;;NON;NON;;ITINERANT;NON;I;15;9;0;94,57722434;5,422775658;0;0;7;29,38341032;47.535458;2.042446;47.535458, 2.042446
3;294861;NOUVEAU CINEMA LE PARADISIO 1;HAUTS DE FRANCE;16 BD ERNEST NOEL;60471;Noyon;13409;60;60304;Noyon;15427;06-autres communes et unités urbaines;4;643;53;6181;91976;61302;50,03751917;De 80 à 100 000 entrées;;OUI;E;JP;FIXE;NON;C;282;230;165;37,82968769;45,61691371;13,22298473;3,330413863;114;6,762824422;49.579959;3.008971;49.579959, 3.008971
3;298831;LES CARMES;CENTRE-VAL DE LOIRE;7 RUE DES CARMES;45234;Orléans;119380;45;45701;Orléans;291555;04-Unités urbaines de 100 000 hbts ou plus;4;517;53;9457;145200;79339;83,01213779;De 100 à 150 000 entrées;;OUI;A;RDJPPR;FIXE;NON;C;561;307;252;65,65798351;15,38151333;8,762514832;10,19798832;481;91,46858787;47.901533;1.900955;47.901533, 1.900955
3;299511;CINEDORI;HAUTS DE FRANCE;RUE DES FRAISIERS;60482;Orry-la-Ville;3473;60;60204;Orry-la-Ville;6704;06-autres communes et unités urbaines;1;186;45;162;6430;2708;137,4446086;De 5 à 10 000 entrées;;NON;NON;;FIXE;NON;C;66;54;0;66,18670118;23,11923637;7,733376476;2,960685973;18;26,12845818;49.130553;2.511848;49.130553, 2.511848
3;314823;CINELAC;BRETAGNE;13 RUE DU LAC;56165;Ploërmel;10348;56;56216;Ploërmel;10348;06-autres communes et unités urbaines;5;794;53;8108;110173;65617;67,90313486;De 100 à 150 000 entrées;;OUI;E;JPPR;FIXE;NON;I;303;223;137;43,55986159;42,2449827;10,69065744;3,50449827;117;7,918800461;47.936453;-2.401708;47.936453, -2.401708
3;322952;CINEMA PAX;PAYS DE LA LOIRE;5 RUE DU MARECHAL JOFFRE;44135;Le Pouliguen;4116;44;44601;Saint-Nazaire;160970;04-Unités urbaines de 100 000 hbts ou plus;1;230;53;1478;36717;21522;70,60217452;De 30 à 40 000 entrées;;OUI;C;RDJP;FIXE;NON;B;263;182;124;67,89217777;11,42767778;12,31766613;8,362478319;206;75,49262134;47.276193;-2.429727;47.276193, -2.429727
3;329501;IRIS;BRETAGNE;2 BOULEVARD SAINT PIERRE;56184;Questembert;8219;56;56208;Questembert;8219;06-autres communes et unités urbaines;2;334;53;1690;40707;24911;63,40973867;De 40 à 50 000 entrées;;OUI;E;RDJPPR;FIXE;NON;I;328;238;24;57,94908412;29,94260292;8,29923379;3,809079175;205;37,4893582;47.662952;-2.454678;47.662952, -2.454678
3;330021;KATORZA;BRETAGNE;38 BOULEVARD DUPLEIX;29232;Quimper;65875;29;29501;Quimper;83222;05-Unités urbaines de 20 000 à 100 000 hbts;6;785;53;7981;74363;42512;74,92237486;De 50 à 80 000 entrées;CINEVILLE;OUI;D;RDJPPR;FIXE;NON;C;392;258;214;75,33704679;6,781657674;8,998094795;8,883200745;353;94,79631757;47.994608;-4.102191;47.994608, -4.102191
3;334921;VOX;PAYS DE LA LOIRE;30 RUE VICTOR FOURCAULT;53188;Renazé;2580;53;53104;Renazé;2580;06-autres communes et unités urbaines;1;218;49;236;9242;6334;45,91095674;De 5 à 10 000 entrées;;OUI;E;;FIXE;NON;I;96;60;2;55,88338602;22,91300784;15,43144831;5,772157827;33;33,20454279;47.794318;-1.057793;47.794318, -1.057793
3;335108;GAUMONT;BRETAGNE;12 RUE YVONNE JEAN HAFFEN;35238;Rennes;226654;35;35701;Rennes;351058;04-Unités urbaines de 100 000 hbts ou plus;13;2800;53;18850;612619;413875;48,02029598;De 450 à 700 000 entrées;PATHE-GAUMONT;NON;NON;;FIXE;OUI;C;336;272;222;38,17122155;43,06877574;14,37735594;4,382646763;145;17,09809118;48.106343;-1.675345;48.106343, -1.675345
3;335711;LE RESTERIA;BRETAGNE;2 BIS RUE LAMENAIS;35239;Retiers;4599;35;35201;Retiers;6350;06-autres communes et unités urbaines;1;169;53;419;9771;5537;76,46740112;De 5 à 10 000 entrées;;OUI;E;;FIXE;NON;C;212;173;2;58,21464618;28,70920713;7,883817427;5,192329259;93;25,47942133;47.914523;-1.380231;47.914523, -1.380231
3;336191;RICHELIEU;NORMANDIE;18 RUE DU GENERAL DE GAULLE;50433;Réville;1037;50;00000;Zone rurale;14908533;04-Unités urbaines de 100 000 hbts ou plus;2;285;49;1280;17179;5689;201,9687115;De 10 à 20 000 entrées;;OUI;E;JPPR;FIXE;NON;R;214;180;50;57,39135669;28,46996509;10,94859757;3,190080655;104;23,052847;49.615851;-1.26046;49.615851, -1.26046
3;339311;LA COURONNE;BRETAGNE;2 RUE DE LA GREE BLANCHE;56195;La Roche-Bernard;707;56;00000;Zone rurale;14908533;04-Unités urbaines de 100 000 hbts ou plus;2;260;53;1530;31216;20936;49,10202522;De 30 à 40 000 entrées;;OUI;E;RDJPPR;FIXE;NON;R;273;206;82;52,84203458;36,19271445;8,034245426;2,93100554;121;14,75910693;47.517686;-2.300226;47.517686, -2.300226
3;342071;L'EDEN;GRAND EST;66 RUE GAMBETTA;10323;Romilly-sur-Seine;14959;10;10301;Romilly-sur-Seine;17331;06-autres communes et unités urbaines;3;698;53;3359;48786;30334;60,82943232;De 40 à 50 000 entrées;;OUI;E;JP;FIXE;NON;C;221;176;59;39,13748447;42,32769694;14,35700899;4,177809598;113;15,8162943;48.516527;3.723266;48.516527, 3.723266
3;343951;CINE BREIZ;BRETAGNE;2 RUE DE STRASBOURG;22266;Rostrenen;3428;22;22110;Rostrenen;3428;06-autres communes et unités urbaines;1;227;53;589;11187;5078;120,303269;De 10 à 20 000 entrées;;OUI;E;JP;FIXE;NON;I;256;203;4;56,42913231;24,24420887;15,46917943;3,857479388;129;33,29407146;48.237305;-3.316257;48.237305, -3.316257
3;352610;PATHE SARAN;CENTRE-VAL DE LOIRE;1010 RUE NATIONALE;45302;Saran;16787;45;45701;Orléans;291555;04-Unités urbaines de 100 000 hbts ou plus;10;2436;53;16341;475828;290868;63,58898194;De 450 à 700 000 entrées;PATHE-GAUMONT;NON;NON;;FIXE;OUI;B;186;138;126;31,88394468;53,45427887;12,36505073;2,296725724;22;1,097340945;47.94652;1.895679;47.94652, 1.895679
3;357751;REX;NORMANDIE;5 PLACE DE LA 2EME DB;61464;Sées;4634;61;61107;Sées;4634;06-autres communes et unités urbaines;1;212;52;809;16462;10431;57,81804237;De 10 à 20 000 entrées;;OUI;E;JP;FIXE;NON;I;202;151;5;57,66840842;19,7924022;15,92289225;6,616297133;93;36,88038413;48.607433;0.170941;48.607433, 0.170941
3;359772;CINEMA CONFLUENCES SENS;BOURGOGNE-FRANCHE-COMTE;RUE DES CANNETIERES;89387;Sens;27367;89;89401;Sens;39612;05-Unités urbaines de 20 000 à 100 000 hbts;7;1340;53;11220;204403;126827;61,16678625;De 200 à 300 000 entrées;;OUI;D;JP;FIXE;NON;C;329;247;210;39,72487493;45,0065351;11,2739182;3,994671768;154;12,29850118;48.176509;3.284553;48.176509, 3.284553
3;364503;CGR SOISSONS;HAUTS DE FRANCE;12, RUE DU BEFFROI;02722;Soissons;29543;02;02404;Soissons;44485;05-Unités urbaines de 20 000 à 100 000 hbts;6;982;53;7460;87697;60943;43,90003774;De 80 à 100 000 entrées;CGR;OUI;D;;FIXE;NON;C;254;158;102;37,0280033;46,21183084;12,21529205;4,544873805;118;11,80993531;49.382084;3.326393;49.382084, 3.326393
3;370251;LE SULLY;CENTRE-VAL DE LOIRE;22 BD JEANNE D ARC;45315;Sully-sur-Loire;5203;45;45302;Sully-sur-Loire;11925;06-autres communes et unités urbaines;1;204;50;637;12807;6317;102,7386418;De 10 à 20 000 entrées;;NON;NON;;FIXE;NON;C;165;139;2;54,31505715;34,34652973;8,315388438;3,023024681;71;25,69985092;47.765104;2.374435;47.765104, 2.374435
3;372181;LE MODERNE;CENTRE-VAL DE LOIRE;27 RUE HENRI BARBUSSE;18197;Saint-Amand-Montrond;9785;18;18301;Saint-Amand-Montrond;12127;06-autres communes et unités urbaines;2;226;53;1717;19890;14739;34,94809689;De 10 à 20 000 entrées;;OUI;E;JP;FIXE;NON;C;229;199;67;55,18223535;30,59760536;11,30333878;2,916820507;104;19,31009019;46.722722;2.503052;46.722722, 2.503052
3;374903;JOACASINO;NORMANDIE;128 RUE PASTEUR;14562;Saint-Aubin-sur-Mer;2198;14;14302;Douvres-la-Délivrande - Luc-sur-Mer;15136;06-autres communes et unités urbaines;1;179;53;474;5749;3398;69,1877575;De 5 à 10 000 entrées;;NON;NON;;FIXE;NON;B;179;155;0;56,61157025;31,22529644;9,180740208;2,982393101;51;16,87028387;49.329525;-0.385911;49.329525, -0.385911
3;377271;CLUB;BRETAGNE;40 BD CLEMENCEAU;22278;Saint-Brieuc;45602;22;22501;Saint-Brieuc;97495;05-Unités urbaines de 20 000 à 100 000 hbts;6;1150;53;6793;87658;48633;80,24386733;De 80 à 100 000 entrées;;OUI;D;RDJPPR;FIXE;NON;C;346;213;158;72,90290835;7,225545801;10,93284645;8,938699402;292;91,21927848;48.508095;-2.760537;48.508095, -2.760537
3;382552;CINE-QUAI;GRAND EST;QUAI LAMARTINE;52448;Saint-Dizier;23566;52;00460;Saint-Dizier;30217;05-Unités urbaines de 20 000 à 100 000 hbts;7;1122;53;9178;123846;87256;41,93407903;De 100 à 150 000 entrées;;OUI;D;;FIXE;NON;C;302;234;182;36,08527899;46,22988392;14,31869147;3,366145627;122;8,739777074;48.640036;4.95025;48.640036, 4.95025
3;383961;MONTLUC CINEMA;PAYS DE LA LOIRE;RUE CHAVIN DE LA MUSSE;44158;Saint-Étienne-de-Montluc;7758;44;44205;Saint-Étienne-de-Montluc;7758;06-autres communes et unités urbaines;1;241;47;440;13749;8109;69,55234924;De 10 à 20 000 entrées;;OUI;E;JP;FIXE;NON;I;242;185;0;71,07977082;15,2842662;10,01322168;3,622741296;131;41,32216836;47.275577;-1.779561;47.275577, -1.779561
3;391331;REX;NORMANDIE;RUE WALDECK ROUSSEAU;50484;Saint-Hilaire-du-Harcouët;6077;50;50202;Saint-Hilaire-du-Harcouët;8786;06-autres communes et unités urbaines;1;395;46;493;14288;12529;14,03942853;De 10 à 20 000 entrées;;NON;NON;;FIXE;NON;C;92;76;13;57,22121978;30,31396608;11,26669073;1,198123421;24;17,20678455;48.576008;-1.09371;48.576008, -1.09371
3;399341;FAMILIAL;BRETAGNE;BD DE LA PLAGE;35287;Saint-Lunaire;2589;35;00458;Dinard;35626;05-Unités urbaines de 20 000 à 100 000 hbts;1;203;52;233;7013;4755;47,48685594;De 5 à 10 000 entrées;;OUI;D;;FIXE;NON;B;187;154;0;58,88122605;20,56704981;12,7816092;7,770114943;102;47,40229885;48.634794;-2.105848;48.634794, -2.105848
3;399689;CINE VAUBAN;BRETAGNE;45 RUE DE LA CROIX DESILLES;35288;Saint-Malo;48328;35;35402;Saint-Malo;48328;05-Unités urbaines de 20 000 à 100 000 hbts;8;1458;53;10093;174578;122837;42,12167344;De 150 à 200 000 entrées;;NON;NON;;FIXE;OUI;I;221;174;166;41,22185347;43,81640508;11,63831847;3,323422987;38;4,788656111;48.657589;-1.970525;48.657589, -1.970525
3;416921;FOYER RURAL;CENTRE-VAL DE LOIRE;25 PLACE DU CYGNE;18235;Sainte-Solange;1141;18;00000;Zone rurale;14908533;04-Unités urbaines de 100 000 hbts ou plus;1;200;39;240;7405;2723;171,9427102;De 5 à 10 000 entrées;;OUI;E;;ITINERANT;NON;R;47;30;0;79,1521197;4,272651704;12,85120532;3,724023275;20;45,27015794;47.135691;2.548784;47.135691, 2.548784
3;428483;LE NORMANDY;NORMANDIE;BD DU MIDI;61486;Tinchebray-Bocage;4982;61;61104;Tinchebray;4982;06-autres communes et unités urbaines;1;280;11;57;2245;;;De 2 à 5 000 entrées;;OUI;E;;FIXE;NON;I;45;41;0;59,20925747;33,41369335;5,448408872;1,928640309;16;21,93828351;48.763163;-0.732609;48.763163, -0.732609
3;429621;CINETOILES;BOURGOGNE-FRANCHE-COMTE;21 RUE ARRAULT;89419;Toucy;2732;89;89101;Toucy;2732;06-autres communes et unités urbaines;1;74;51;417;7928;2805;182,6381462;De 5 à 10 000 entrées;;NON;NON;;FIXE;NON;I;137;103;1;61,23413449;22,69781258;9,532811234;6,535241696;63;47,56953821;47.734838;3.292272;47.734838, 3.292272
3;441261;TRIANON;NORMANDIE;4 RUE PALAIS DE JUSTICE;50615;Valognes;7064;50;50205;Valognes;8276;06-autres communes et unités urbaines;1;340;53;735;20808;14084;47,74211872;De 20 à 30 000 entrées;;OUI;E;JP;FIXE;NON;C;176;142;41;52,82935238;28,37232209;14,48411721;4,314208323;81;29,59369613;49.508042;-1.47082;49.508042, -1.47082
3;441861;GARENNE;BRETAGNE;12 RUE ALEXANDRE LE PONTOIS;56260;Vannes;56018;56;56501;Vannes;83769;05-Unités urbaines de 20 000 à 100 000 hbts;5;813;53;6807;89471;51026;75,3439423;De 80 à 100 000 entrées;CINEVILLE;OUI;D;RDJPPR;FIXE;NON;C;418;239;149;71,53040374;6,860511544;12,30593983;9,30314489;358;91,80073749;47.654885;-2.756096;47.654885, -2.756096
3;450742;CINEMA LE REX ANAIS AUBERT;NORMANDIE;PLACE DES ECOSSAIS;76735;Veules-les-Roses;536;76;00000;Zone rurale;14908533;04-Unités urbaines de 100 000 hbts ou plus;1;97;53;947;12266;7358;66,7029084;De 10 à 20 000 entrées;;OUI;E;;FIXE;NON;R;200;134;8;63,09341501;15,65624718;14,35005855;6,900279254;158;73,93928475;49.873882;0.796808;49.873882, 0.796808
3;463643;AURORE CINEMA;BRETAGNE;19 BD DE LAVAL;35360;Vitré;19171;35;35302;Vitré;19171;06-autres communes et unités urbaines;3;515;53;3026;86480;55442;55,9828289;De 80 à 100 000 entrées;;OUI;E;JP;FIXE;NON;I;270;200;66;46,10018948;40,3315964;9,407863572;4,160350545;127;13,83112269;48.123858;-1.200713;48.123858, -1.200713
3;576000;PATHE ATLANTIS;PAYS DE LA LOIRE;8 ALLEE LA PEROUSE;44162;Saint-Herblain;49801;44;44701;Nantes;688577;04-Unités urbaines de 100 000 hbts ou plus;14;2985;53;22146;482439;318917;51,27415597;De 450 à 700 000 entrées;PATHE-GAUMONT;NON;NON;;FIXE;OUI;B;326;238;188;27,88477418;53,92012375;13,63247729;4,562624774;104;3,188778443;47.222987;-1.628379;47.222987, -1.628379
3;719400;SALLE ALAIN BASHUNG;BOURGOGNE-FRANCHE-COMTE;PLACE DE LA LIBERTE;89348;Saint-Julien-du-Sault;2273;89;89102;Saint-Julien-du-Sault;2755;06-autres communes et unités urbaines;1;178;53;349;4045;3149;28,45347729;De 2 à 5 000 entrées;;OUI;E;;FIXE;NON;C;175;131;9;60,81116671;27,70608375;8,743745062;2,739004477;86;35,26468264;48.032408;3.296723;48.032408, 3.296723
3;723840;LA PARENTHESE;CENTRE-VAL DE LOIRE;46 RUE DESLANDES;37018;Ballan-Miré;8225;37;37701;Tours;366772;04-Unités urbaines de 100 000 hbts ou plus;1;166;27;51;3455;821;320,8282582;De 2 à 5 000 entrées;;NON;NON;;FIXE;NON;B;24;11;0;78,17845585;11,00323625;9,893666204;0,924641701;16;69,71798428;47.345608;0.608054;47.345608, 0.608054
3;724360;UTOPIA;GRAND EST;Cinémas UTOPIA Parc du Moulinet Voie aux Vaches;10297;Pont-Sainte-Marie;5237;10;10601;Troyes;143855;04-Unités urbaines de 100 000 hbts ou plus;4;299;2;134;1028;;;Moins de 2000 entrées;;NON;NON;;FIXE;NON;B;17;16;0;68,76332623;7,995735608;7,356076759;15,88486141;16;85,71428571;48.317134;4.105569;48.317134, 4.105569
4;13622;ESPACE CULTUREL VILLENEUVE;PAYS DE LA LOIRE;ROUTE DE CHALLANS;85003;Aizenay;10270;85;85206;Aizenay;10270;06-autres communes et unités urbaines;2;240;53;1350;20912;11184;86,981402;De 20 à 30 000 entrées;;OUI;E;JP;FIXE;NON;I;298;253;4;55,29769445;29,88092222;11,87737522;2,944008107;146;31,58348112;46.744249;-1.6164029999999912;46.744249, -1.6164029999999912
4;23131;CASINO;OCCITANIE;2 PLACE DESPOURRINS;65025;Argelès-Gazost;3069;65;65204;Argelès-Gazost;7092;06-autres communes et unités urbaines;1;288;53;545;9128;4412;106,8902992;De 5 à 10 000 entrées;;OUI;E;;FIXE;NON;C;254;218;52;57,41230592;24,63484761;13,93904543;4,013801035;150;39,27544566;43.005826;-0.095968;43.005826, -0.095968
4;23491;LE COMMYNES;NOUVELLE AQUITAINE;RUE DE LA FRERIE;79013;Argentonnay;3283;79;00000;Zone rurale;14908533;04-Unités urbaines de 100 000 hbts ou plus;1;223;48;335;3071;1892;62,31501057;De 2 à 5 000 entrées;;OUI;E;;FIXE;NON;R;152;119;2;69,4828842;16,78805535;8,266569556;5,462490896;55;35,90677349;46.983737;-0.446514;46.983737, -0.446514
4;28991;COLBERT;NOUVELLE AQUITAINE;GRANDE RUE;23008;Aubusson;3335;23;23102;Aubusson;3335;06-autres communes et unités urbaines;2;379;53;1667;17076;10860;57,23756906;De 10 à 20 000 entrées;;OUI;E;RDJP;FIXE;NON;I;314;253;6;57,23796842;25,16010399;12,15522161;5,446705979;184;42,12161562;45.956961;2.170097;45.956961, 2.170097
4;54891;ROYAL;NOUVELLE AQUITAINE;8 AV DU MARECHAL FOCH;64122;Biarritz;26583;64;00751;Bayonne (partie française);257726;04-Unités urbaines de 100 000 hbts ou plus;3;451;53;4866;66258;42109;57,3487853;De 50 à 80 000 entrées;;OUI;C;RDJPPR;FIXE;NON;C;295;191;138;65,25719888;13,92495137;11,59411123;9,223738516;218;76,14604912;43.481231;-1.559098;43.481231, -1.559098
4;56475;LE RENOIR;NOUVELLE AQUITAINE;RUE DU 14 JUILLET;40046;Biscarrosse;14393;40;40302;Biscarrosse;14393;06-autres communes et unités urbaines;4;536;53;5463;82663;53693;53,9548917;De 80 à 100 000 entrées;;OUI;E;RDJPPR;FIXE;NON;I;360;253;109;38,3193716;45,63126103;11,74774416;4,301623207;192;14,80151135;44.39654;-1.166475;44.39654, -1.166475
4;80391;MEGA CGR;NOUVELLE AQUITAINE;AVENUE DES FRERES LUMIERE;86041;Buxerolles;10127;86;86601;Poitiers;137075;04-Unités urbaines de 100 000 hbts ou plus;12;2174;53;23546;335711;204708;63,99505637;De 300 à 450 000 entrées;CGR;NON;NON;;FIXE;OUI;B;226;185;184;34,73339023;49,91060599;11,87427938;3,481724391;37;3,396073851;46.610272;0.367025;46.610272, 0.367025
4;81673;LE QUERCY;OCCITANIE;871 RUE EMILE ZOLA;46042;Cahors;21081;46;46401;Cahors;24762;05-Unités urbaines de 20 000 à 100 000 hbts;1;360;19;53;4649;;;De 2 à 5 000 entrées;;NON;NON;;FIXE;NON;C;17;4;0;46,12513721;27,35455543;4,654226125;21,86608123;15;97,34357849;44.447834;1.439163;44.447834, 1.439163
4;85993;CINE CARBONNE;OCCITANIE;BOIS DE CASTRES;31107;Carbonne;5954;31;31204;Carbonne;6946;06-autres communes et unités urbaines;1;206;53;531;9389;5381;74,4842966;De 5 à 10 000 entrées;;OUI;E;JP;FIXE;NON;C;369;284;0;67,67898524;13,94072448;11,26966703;7,110623247;246;56,47030126;43.286407;1.200892;43.286407, 1.200892
4;86860;SALLE MULTISERVICE;NOUVELLE AQUITAINE;1 ROUTE DEPARTEMENTALE 42;64167;Carrère;219;64;00000;Zone rurale;14908533;04-Unités urbaines de 100 000 hbts ou plus;1;150;28;100;4204;2091;101,0521282;De 2 à 5 000 entrées;;NON;NON;;ITINERANT;NON;R;30;17;0;79,50946911;20,49053089;0;0;13;35,1443651;43.4817151;-0.2803853000000345;43.4817151, -0.2803853000000345
4;87941;LE CASTELIA;OCCITANIE;17 RUE PONT FAURÉ;31116;Castelginest;10901;31;31701;Toulouse;1024959;04-Unités urbaines de 100 000 hbts ou plus;1;190;53;1253;22817;12275;85,88187373;De 20 à 30 000 entrées;;OUI;C;;FIXE;NON;B;246;173;14;56,1388518;26,88384513;8,069425901;8,90787717;132;37,25500668;43.693325;1.429742;43.693325, 1.429742
4;88371;SALLE COMMUNALE POLYVALENTE;OCCITANIE;SALLE COMMUNALE POLYVALENTE;09082;Castelnau-Durban;462;09;00000;Zone rurale;14908533;04-Unités urbaines de 100 000 hbts ou plus;1;80;49;444;8562;3990;114,5864662;De 5 à 10 000 entrées;;OUI;E;;ITINERANT;NON;R;116;68;1;56,67045311;21,69632715;15,76423072;5,868989019;83;77,15511801;43.001442;1.33357;43.001442, 1.33357
4;88991;CINE 4;NOUVELLE AQUITAINE;PLACE JASMIN;47057;Castillonnès;1386;47;00000;Zone rurale;14908533;04-Unités urbaines de 100 000 hbts ou plus;1;205;53;587;12889;7589;69,83792331;De 10 à 20 000 entrées;;OUI;E;;FIXE;NON;R;263;213;0;43,5432492;28,93898554;19,09662664;8,42113861;138;37,5479866;44.651621;0.591622;44.651621, 0.591622
4;93261;COMPLEXE LE REX;NOUVELLE AQUITAINE;PLACE DU SOUVENIR;33122;Cestas;17219;33;33701;Bordeaux;975671;04-Unités urbaines de 100 000 hbts ou plus;2;544;53;2609;35526;23267;52,6883569;De 30 à 40 000 entrées;;OUI;C;JP;FIXE;NON;B;213;174;59;48,83923642;38,69599326;9,411046866;3,053723451;91;12,97905105;44.742006;-0.685394;44.742006, -0.685394
4;108592;FOYER CULTUREL;NOUVELLE AQUITAINE;PLACE CAIL;79083;Chef-Boutonne;2514;79;79101;Chef-Boutonne;2514;06-autres communes et unités urbaines;1;146;49;379;5328;3546;50,25380711;De 5 à 10 000 entrées;;OUI;E;;FIXE;NON;I;192;156;1;70,33305921;12,84950658;12,95230263;3,865131579;90;45,25082237;46.108833;-0.068552;46.108833, -0.068552
4;113271;LE MAGNOAC;OCCITANIE;LE MAGNOAC;65148;Cizos;135;65;00000;Zone rurale;14908533;04-Unités urbaines de 100 000 hbts ou plus;1;116;51;195;2546;1217;109,2029581;De 2 à 5 000 entrées;;OUI;E;;FIXE;NON;R;171;149;18;57,0461278;13,66906475;22,76766822;6,51713923;84;45,91620821;43.257218;0.483469;43.257218, 0.483469
4;136686;LA STRADA;OCCITANIE;ZONE INDUSTRIELLE DU CENTRE;12089;Decazeville;5408;12;12302;Decazeville;14375;06-autres communes et unités urbaines;3;460;53;3881;64545;37273;73,16824511;De 50 à 80 000 entrées;;OUI;E;JPPR;FIXE;NON;C;301;216;89;48,15672589;39,17988579;9,035532995;3,62785533;169;12,50317259;44.557817;2.274123;44.557817, 2.274123
4;147471;CINEMA POUR TOUS;OCCITANIE;RUE DU CHATEAU;12094;Entraygues-sur-Truyère;999;12;00000;Zone rurale;14908533;04-Unités urbaines de 100 000 hbts ou plus;1;150;53;164;4116;2783;47,89795185;De 2 à 5 000 entrées;;OUI;E;;FIXE;NON;R;132;109;1;71,16233448;10,37273173;13,90387445;4,561059343;73;48,16086317;44.644532;2.564434;44.644532, 2.564434
4;154921;JEAN RENOIR;NOUVELLE AQUITAINE;RUE DE L HOTEL DE VILLE;33162;Eysines;24483;33;33701;Bordeaux;975671;04-Unités urbaines de 100 000 hbts ou plus;1;169;50;490;11140;5179;115,09944;De 10 à 20 000 entrées;;OUI;C;;FIXE;NON;B;243;205;10;73,78086105;11,68128953;8,814527647;5,723321771;136;55,53968578;44.879016;-0.6384;44.879016, -0.6384
4;162212;REX;OCCITANIE;PLACE DU 8 MAI 1945;09122;Foix;9841;09;09301;Foix;14988;06-autres communes et unités urbaines;1;141;53;1360;24424;15138;61,34231735;De 20 à 30 000 entrées;;OUI;E;;FIXE;NON;C;129;106;48;48,81633335;36,66652749;10,69266419;3,82447497;67;26,44565989;42.965028;1.607346;42.965028, 1.607346
4;189661;AQUITAINE;NOUVELLE AQUITAINE;1 RUE CARNOT;40119;Hagetmau;4739;40;40201;Hagetmau;5456;06-autres communes et unités urbaines;1;415;50;596;6982;3644;91,60263447;De 5 à 10 000 entrées;;OUI;E;;FIXE;NON;C;225;197;4;59,92008606;27,47810051;8,805901337;3,795912095;91;19,02566467;43.656112;-0.592314;43.656112, -0.592314
4;204891;FAMILIA;NOUVELLE AQUITAINE;RUE SADI CARNOT;17197;Jonzac;3766;17;17201;Jonzac;5745;06-autres communes et unités urbaines;2;354;53;1430;28984;17962;61,36287719;De 20 à 30 000 entrées;;OUI;E;JP;FIXE;NON;C;231;173;41;55,77269777;29,52332877;9,958895219;4,745078243;114;23,07636836;45.445545;-0.433778;45.445545, -0.433778
4;225444;GRAND ECRAN;NOUVELLE AQUITAINE;56 AVENUE GALLIENI;33243;Libourne;24941;33;33401;Libourne;36490;05-Unités urbaines de 20 000 à 100 000 hbts;10;1367;53;12878;189641;107903;75,75136929;De 150 à 200 000 entrées;GRAND ECRAN;OUI;D;RDJP;FIXE;OUI;C;380;272;223;38,91066727;45,94558655;11,80553709;3,33820909;183;14,85651977;44.913546;-0.237461;44.913546, -0.237461
4;234273;LE PALAIS;OCCITANIE;SQUARE DU GENERAL DE GAULLE;65286;Lourdes;13546;65;65302;Lourdes;16846;06-autres communes et unités urbaines;1;487;36;96;4341;414;948,5507246;De 2 à 5 000 entrées;;OUI;E;;FIXE;NON;C;68;45;1;69,40613566;14,12890515;13,42527442;3,039684773;57;81,36785815;43.085637;-0.04492;43.085637, -0.04492
4;234295;CINEMA BERNADETTE;OCCITANIE;6 AV MGR SCHOEPFER;65286;Lourdes;13546;65;65302;Lourdes;16846;06-autres communes et unités urbaines;1;281;30;369;4566;1637;178,9248626;De 2 à 5 000 entrées;;NON;NON;;FIXE;NON;C;4;0;0;91,80902322;1,927288655;6,26368813;0;1;6,26368813;43.095917;-0.055559;43.095917, -0.055559
4;252742;MAULE BAITHA;NOUVELLE AQUITAINE;15 RUE ARNAUD DE MAYTIE;64371;Mauléon-Licharre;3189;64;64204;Mauléon-Licharre;6789;06-autres communes et unités urbaines;2;416;53;1313;16204;10173;59,28438022;De 10 à 20 000 entrées;;OUI;E;JP;FIXE;NON;C;380;329;71;53,48852901;29,19703104;13,30634278;4,008097166;215;33,04318489;43.221421;-0.889467;43.221421, -0.889467
4;253442;CINEMAUV;OCCITANIE;PLACE DU FOIRAL;32249;Mauvezin;2287;32;00000;Zone rurale;14908533;04-Unités urbaines de 100 000 hbts ou plus;1;88;53;266;4851;3214;50,9334163;De 2 à 5 000 entrées;;OUI;E;;FIXE;NON;R;190;156;27;55,66644489;26,74650699;8,205810601;9,381237525;84;64,87025948;43.731827;0.878411;43.731827, 0.878411
4;254005;CINEMA APOLLO;OCCITANIE;PLACE DU MARECHAL LECLERC;81163;Mazamet;10361;81;81401;Mazamet;25228;05-Unités urbaines de 20 000 à 100 000 hbts;4;585;49;1386;25151;19506;28,93981339;De 20 à 30 000 entrées;;OUI;D;;FIXE;NON;C;188;150;25;43,73807201;39,89566988;14,30934306;2,056915052;96;18,10933458;43.493101;2.374957;43.493101, 2.374957
4;266571;LA BOBINE;NOUVELLE AQUITAINE;22 RUE DU COMMERCE;64393;Monein;4520;64;64302;Mourenx;14244;06-autres communes et unités urbaines;1;159;51;789;8341;4760;75,23109244;De 5 à 10 000 entrées;;OUI;E;JP;FIXE;NON;C;297;245;5;64,92994746;21,17629889;8,800350263;5,093403386;160;51,37186223;43.320215;-0.579262;43.320215, -0.579262
4;267243;LE LASCAUX;NOUVELLE AQUITAINE;RUE WILSON;24294;Montpon-Ménestérol;5878;24;00354;Montpon-Ménestérol;12136;06-autres communes et unités urbaines;1;179;53;601;12124;6223;94,82564679;De 10 à 20 000 entrées;;OUI;E;JP;FIXE;NON;C;230;182;1;57,26526892;26,98268004;8,915223336;6,836827712;100;25,51504102;45.008093;0.159645;45.008093, 0.159645
4;267391;EDEN;NOUVELLE AQUITAINE;7 RUE PORTE DU DROPT;33289;Monségur;1668;33;00000;Zone rurale;14908533;04-Unités urbaines de 100 000 hbts ou plus;1;189;53;936;13213;7682;71,9994793;De 10 à 20 000 entrées;;OUI;E;JPPR;FIXE;NON;R;339;264;3;58,27841845;20,96375618;13,22075783;7,537067545;202;45,60131796;44.650724;0.079158;44.650724, 0.079158
4;272481;LE CINE;NOUVELLE AQUITAINE;ALLEE DES PLATANES;17241;Montguyon;1583;17;00000;Zone rurale;14908533;04-Unités urbaines de 100 000 hbts ou plus;1;133;53;450;7675;5514;39,1911498;De 5 à 10 000 entrées;;OUI;E;JP;FIXE;NON;R;200;162;0;50,49664037;27,73882559;12,86882851;8,895705521;81;38,8694128;45.217551;-0.186333;45.217551, -0.186333
4;302933;REX;OCCITANIE;19 RUE TAILLANCIER;09225;Pamiers;16421;09;09401;Pamiers;27866;05-Unités urbaines de 20 000 à 100 000 hbts;2;275;53;2060;28465;12131;134,6467727;De 20 à 30 000 entrées;;NON;NON;;FIXE;NON;C;174;149;66;35,43422893;48,70681924;10,22706891;5,631882914;77;18,90447322;43.116608;1.612993;43.116608, 1.612993
4;310180;MEGARAMA PIAN MEDOC;NOUVELLE AQUITAINE;ROUTE DE PAUILLAC;33322;Le Pian-Médoc;7138;33;33701;Bordeaux;975671;04-Unités urbaines de 100 000 hbts ou plus;6;1079;53;9772;197388;122506;61,12516938;De 150 à 200 000 entrées;MEGARAMA;NON;NON;;FIXE;NON;B;142;119;107;24,70601371;59,95848411;12,24566443;3,089837743;10;1,021656271;44.952219;-0.629792;44.952219, -0.629792
4;312973;L EUROPE;OCCITANIE;14 RUE SAINT NICOLAS;32319;Plaisance;1446;32;00000;Zone rurale;14908533;04-Unités urbaines de 100 000 hbts ou plus;1;181;53;432;9816;6159;59,37652216;De 5 à 10 000 entrées;;OUI;E;;FIXE;NON;R;283;234;39;53,48910641;24,09220082;15,40890433;7,009788443;159;38,19597937;43.604768;0.0448;43.604768, 0.0448
4;317345;TAP CASTILLE;NOUVELLE AQUITAINE;1 PLACE DU MARECHAL LECLERC;86194;Poitiers;92296;86;86601;Poitiers;137075;04-Unités urbaines de 100 000 hbts ou plus;3;459;51;4526;65153;36421;78,88855331;De 50 à 80 000 entrées;;OUI;B;RDJPPR;FIXE;NON;C;302;160;119;74,73314417;5,565126334;8,284353466;11,41737603;274;96,35184435;46.580669;0.339687;46.580669, 0.339687
4;320561;GRAND ECRAN;NOUVELLE AQUITAINE;PLACE DES ARENES;40230;Pontonx-sur-l'Adour;2997;40;00000;Zone rurale;14908533;04-Unités urbaines de 100 000 hbts ou plus;1;220;53;605;8832;5546;59,24990984;De 5 à 10 000 entrées;;OUI;E;;FIXE;NON;R;203;179;70;52,33316608;35,41144004;9,671349724;2,584044155;76;19,20471651;43.787182;-0.923978;43.787182, -0.923978
4;322592;SALLE DE CINEMA;NOUVELLE AQUITAINE;ARENES;40233;Pouillon;3169;40;40202;Pouillon;5839;06-autres communes et unités urbaines;1;288;44;323;8265;3676;124,8367791;De 5 à 10 000 entrées;;OUI;E;;ITINERANT;NON;C;176;134;0;68,47377725;11,62345315;13,53859753;6,364172068;89;48,7625221;43.608168;-0.998487;43.608168, -0.998487
4;331401;L'AUTAN;OCCITANIE;PLACE JEAN JAURES;31446;Ramonville-Saint-Agne;15017;31;31701;Toulouse;1024959;04-Unités urbaines de 100 000 hbts ou plus;1;201;53;1095;28040;16402;70,95476161;De 20 à 30 000 entrées;;OUI;C;JP;FIXE;NON;B;300;212;1;69,73631321;8,927566525;10,82080553;10,51531474;213;71,33210065;43.545097;1.484818;43.545097, 1.484818
4;335473;LA MAISON POUR TOUS;OCCITANIE;RUE DU DEPUTE LAURENS;12197;Réquista;2056;12;00000;Zone rurale;14908533;04-Unités urbaines de 100 000 hbts ou plus;1;88;52;363;4234;2126;99,1533396;De 2 à 5 000 entrées;;NON;NON;;FIXE;NON;R;107;90;0;72,14285714;17,33990148;3,522167488;6,995073892;42;41,25615764;44.032421;2.535913;44.032421, 2.535913
4;339852;LA COURSIVE;NOUVELLE AQUITAINE;4 RUE ST JEAN DU PEROT;17300;La Rochelle;79323;17;17601;La Rochelle;136511;04-Unités urbaines de 100 000 hbts ou plus;2;1280;47;1571;47685;24973;90,94622192;De 40 à 50 000 entrées;;OUI;B;RDJPPR;FIXE;NON;C;151;73;56;65,00786367;5,462313091;12,61003263;16,91979062;135;95,70432619;46.156657;-1.154697;46.156657, -1.154697
4;348296;LE GRAND PALACE;PAYS DE LA LOIRE;BD DE L ILE VERTIME;85194;Les Sables-d'Olonne;48401;85;85403;Les Sables-d'Olonne;48401;05-Unités urbaines de 20 000 à 100 000 hbts;7;1293;53;6870;195892;128384;52,58287637;De 150 à 200 000 entrées;;NON;NON;;FIXE;NON;C;244;189;147;52,09936658;35,81251161;8,906575608;3,181546207;92;14,534116;46.501653;-1.786349;46.501653, -1.786349
4;348442;L ESTRADE;NOUVELLE AQUITAINE;SALLE MUNICIPALE;40246;Sabres;1312;40;00000;Zone rurale;14908533;04-Unités urbaines de 100 000 hbts ou plus;1;103;51;465;3957;2135;85,33957845;De 2 à 5 000 entrées;;OUI;E;JP;FIXE;NON;R;193;161;0;62,59567388;19,53410982;13,77703827;4,093178037;80;37,87021631;44.152438;-0.737033;44.152438, -0.737033
4;355993;CENTRE MULTIMEDIA;OCCITANIE;RUE DU LION D'OR;09282;Saverdun;4966;09;09105;Saverdun;4966;06-autres communes et unités urbaines;1;189;50;285;3183;1680;89,46428571;De 2 à 5 000 entrées;;OUI;E;;FIXE;NON;I;205;168;0;47,95417349;25,63011457;17,47954173;8,936170213;121;44,02618658;43.236313;1.574721;43.236313, 1.574721
4;367911;EDEN;NOUVELLE AQUITAINE;PLACE ST JACQUES;23176;La Souterraine;5182;23;23201;La Souterraine;5182;06-autres communes et unités urbaines;1;190;49;810;10057;6441;56,14035088;De 10 à 20 000 entrées;;OUI;E;JP;FIXE;NON;I;237;167;0;56,96813285;26,62701975;10,28949731;6,11535009;135;44,07540395;46.236572;1.486137;46.236572, 1.486137
4;377892;M J C;OCCITANIE;QUAI AUGUSTE SALESSES;46251;Saint-Céré;3582;46;46106;Saint-Céré;4678;06-autres communes et unités urbaines;1;284;36;396;6379;4867;31,06636532;De 5 à 10 000 entrées;;OUI;E;;FIXE;NON;C;156;115;0;62,24114896;17,63527054;11,23914496;8,884435538;76;51,11890448;44.85779;1.896668;44.85779, 1.896668
4;387092;JEANNE D ARC;NOUVELLE AQUITAINE;AVENUE DE SAINTES;17331;Saint-Genis-de-Saintonge;1293;17;00000;Zone rurale;14908533;04-Unités urbaines de 100 000 hbts ou plus;1;282;51;217;5242;3292;59,2345079;De 5 à 10 000 entrées;;NON;NON;;FIXE;NON;R;182;163;0;55,68181818;25,4784689;14,65311005;4,186602871;69;28,20972887;45.485115;-0.566824;45.485115, -0.566824
4;390821;LE TIGRE;PAYS DE LA LOIRE;PLACE DE LA LIBERTE;85223;Sainte-Hermine;3008;85;00000;Zone rurale;14908533;04-Unités urbaines de 100 000 hbts ou plus;1;162;47;279;5475;3086;77,41412832;De 5 à 10 000 entrées;;OUI;E;;FIXE;NON;R;125;101;1;43,77336219;28,78221523;27,40507574;0,039346842;59;65,8666142;46.556503;-1.061779;46.556503, -1.061779
4;395463;LE SELECT;NOUVELLE AQUITAINE;CONTIS PLAGE;40266;Saint-Julien-en-Born;1722;40;00000;Zone rurale;14908533;04-Unités urbaines de 100 000 hbts ou plus;1;290;38;701;8614;9722;-11,39683193;De 5 à 10 000 entrées;;OUI;E;RDJP;FIXE;NON;R;195;150;4;47,52404703;22,87139295;15,200095;14,40446503;135;54,62534141;44.079661;-1.257781;44.079661, -1.257781
4;396961;LE SAINT LAURENT;OCCITANIE;4 BIS AVENUE DES CHATAIGNERS;65389;Saint-Laurent-de-Neste;990;65;00000;Zone rurale;14908533;04-Unités urbaines de 100 000 hbts ou plus;1;326;51;213;3795;2181;74,00275103;De 2 à 5 000 entrées;;NON;NON;;FIXE;NON;R;190;151;28;69,31407942;8,002406739;19,25391095;3,429602888;105;47,35258724;43.08008;0.480895;43.08008, 0.480895
4;398525;ART CINE;NOUVELLE AQUITAINE;ART CINE;47252;Sainte-Livrade-sur-Lot;6660;47;47401;Villeneuve-sur-Lot;49674;05-Unités urbaines de 20 000 à 100 000 hbts;1;50;50;704;6088;3267;86,3483318;De 5 à 10 000 entrées;;OUI;D;RDJPPR;ITINERANT;NON;B;245;177;1;68,37168142;13,57522124;11,07964602;6,973451327;186;63,66371681;44.397257;0.588996;44.397257, 0.588996
4;411540;LES TOILES DU MOUN;NOUVELLE AQUITAINE;447 AVENUE DU CORPS FRANC;40281;Saint-Pierre-du-Mont;10087;40;40401;Mont-de-Marsan;41453;05-Unités urbaines de 20 000 à 100 000 hbts;4;388;53;7069;63025;39700;58,75314861;De 50 à 80 000 entrées;;NON;NON;;FIXE;NON;B;144;97;91;30,93669482;53,7751541;12,34630312;2,94184795;38;5,683115358;43.885758;-0.521675;43.885758, -0.521675
4;421441;LE MANOIR;PAYS DE LA LOIRE;11 TER AVENUE DES SABLES;85288;Talmont-Saint-Hilaire;8119;85;85204;Talmont-Saint-Hilaire;8119;06-autres communes et unités urbaines;1;309;53;596;7008;4051;72,99432239;De 5 à 10 000 entrées;;OUI;E;;FIXE;NON;I;231;178;0;59,76845152;26,38205499;9,8552822;3,994211288;115;29,37771346;46.465494;-1.62086;46.465494, -1.62086
4;427365;LE KIOSQUE;NOUVELLE AQUITAINE;BOULEVARD ADRIEN MORIN;79329;Thouars;14225;79;79302;Thouars;17467;06-autres communes et unités urbaines;4;530;53;5391;77715;34822;123,1778761;De 50 à 80 000 entrées;;NON;NON;;FIXE;NON;C;288;221;121;55,09168432;33,24962725;8,995788537;2,662899893;146;14,07439378;46.979451;-0.21706;46.979451, -0.21706
4;430261;LE CRATERE;OCCITANIE;95 GRANDE RUE SAINT MICHEL;31555;Toulouse;503020;31;31701;Toulouse;1024959;04-Unités urbaines de 100 000 hbts ou plus;1;79;46;1378;22637;10663;112,2948514;De 20 à 30 000 entrées;;OUI;A;RDJP;FIXE;NON;C;379;204;2;58,72356702;8,567837823;18,41975848;14,28883668;326;88,88585323;43.588909;1.445984;43.588909, 1.445984
4;430404;CINEMA LE METRO;OCCITANIE;ALLEE DE BELLEFONTAINE;31555;Toulouse;503020;31;31701;Toulouse;1024959;04-Unités urbaines de 100 000 hbts ou plus;1;130;25;126;4442;609;629,3924466;De 2 à 5 000 entrées;;NON;NON;;FIXE;NON;C;47;29;0;44,75683891;31,80091185;2,507598784;20,93465046;29;72,34042553;43.563857;1.404136;43.563857, 1.404136
4;433913;LE CRISTAL;NOUVELLE AQUITAINE;99 AVENUE BEAUPREAU;17452;La Tremblade;4391;17;17301;La Tremblade;12508;06-autres communes et unités urbaines;1;259;51;864;7727;7237;6,770761365;De 5 à 10 000 entrées;;OUI;E;JP;FIXE;NON;C;221;187;12;65,30113555;19,60615208;8,782521202;6,310191174;137;60,21273537;45.796268;-1.166123;45.796268, -1.166123
4;447605;MJC VERDUN SUR GARONNE;OCCITANIE;15 RUE CLEMENCE ISAURE;82190;Verdun-sur-Garonne;4900;82;82104;Verdun-sur-Garonne;4900;06-autres communes et unités urbaines;1;98;49;374;4996;3063;63,10806399;De 2 à 5 000 entrées;;OUI;E;;FIXE;NON;I;242;202;0;52,37569061;25,83425414;14,40883978;7,38121547;118;29,12707182;43.851122;1.234903;43.851122, 1.234903
4;452961;ALBRET;NOUVELLE AQUITAINE;Z A C DES TAMARIS;40328;Vieux-Boucau-les-Bains;1670;40;00000;Zone rurale;14908533;04-Unités urbaines de 100 000 hbts ou plus;1;436;43;298;6527;5606;16,42882626;De 5 à 10 000 entrées;;NON;NON;;FIXE;NON;R;128;106;23;38,85150994;43,87419809;12,5958379;4,678454076;58;25,50461587;43.78629;-1.402582;43.78629, -1.402582
4;458401;CYRANO;NOUVELLE AQUITAINE;9 BD DE LA MARINE;47323;Villeneuve-sur-Lot;22385;47;47401;Villeneuve-sur-Lot;49674;05-Unités urbaines de 20 000 à 100 000 hbts;6;676;53;6996;68293;41690;63,81146558;De 50 à 80 000 entrées;GRAND ECRAN;NON;NON;;FIXE;NON;C;174;155;123;34,1841399;51,09705388;10,7419859;3,976820313;38;5,494116606;44.408808;0.704017;44.408808, 0.704017
4;465651;SALLE DU COLLEGE;NOUVELLE AQUITAINE;VOUNEUIL  VIENNE SLE DU COLLEGE;86298;Vouneuil-sur-Vienne;2329;86;00000;Zone rurale;14908533;04-Unités urbaines de 100 000 hbts ou plus;1;120;53;926;36465;15505;135,1821993;De 30 à 40 000 entrées;;OUI;E;JPPR;ITINERANT;NON;R;133;76;0;78,59183379;11,83379022;5,243110662;4,33126533;56;33,97778098;46.716996;0.536753;46.716996, 0.536753
4;706850;TICKY HOLGADO;OCCITANIE;389 CHEMIN DE BLAZA;31066;Bessières;4258;31;31109;Bessières;4258;06-autres communes et unités urbaines;1;201;30;151;3400;2376;43,0976431;De 2 à 5 000 entrées;;NON;NON;;FIXE;NON;I;94;74;2;65,39440204;14,28571429;11,30498001;9,014903671;45;48,3824064;43.795535;1.6077;43.795535, 1.6077
4;718200;CINEVILLE;PAYS DE LA LOIRE;RUE FRANCOIS CEVERT;85191;La Roche-sur-Yon;58168;85;85501;La Roche-sur-Yon;58168;05-Unités urbaines de 20 000 à 100 000 hbts;9;2014;51;12455;342830;217755;57,43840555;De 300 à 450 000 entrées;CINEVILLE;NON;NON;;FIXE;OUI;I;247;158;138;36,6845657;49,97039738;10,64015293;2,70488399;72;2,516369806;46.697805;-1.426619;46.697805, -1.426619
4;720750;CGR MONTAUBAN;OCCITANIE;ZONE DU FUTUROPOLE;82121;Montauban;63158;82;82501;Montauban;82406;05-Unités urbaines de 20 000 à 100 000 hbts;11;2082;53;21579;311971;169502;84,05151562;De 300 à 450 000 entrées;CGR;NON;NON;;FIXE;OUI;C;211;177;175;31,26117564;52,65557292;12,3962176;3,687033845;27;2,255263624;43.973656;1.38232;43.973656, 1.38232
4;721850;LE GRAND CLUB;NOUVELLE AQUITAINE;64 BOULEVARD DE LA REPUBLIQUE;40192;Mont-de-Marsan;31366;40;40401;Mont-de-Marsan;41453;05-Unités urbaines de 20 000 à 100 000 hbts;8;1327;53;10241;152061;93919;61,90653648;De 150 à 200 000 entrées;;OUI;D;JP;FIXE;OUI;C;300;232;201;34,58919503;50,3471733;11,84816954;3,215462126;138;13,18587692;43.887186;-0.501779;43.887186, -0.501779
4;724760;ECRAN 7;OCCITANIE;AVENUE DU CHÂTEAU D'EAU;31526;La Salvetat-Saint-Gilles;8694;31;31701;Toulouse;1024959;04-Unités urbaines de 100 000 hbts ou plus;1;182;46;410;4181;3071;36,14457831;De 2 à 5 000 entrées;;NON;NON;;FIXE;NON;B;133;112;1;63,95498392;20,77170418;4,98392283;10,28938907;58;32,76527331;43.578553;1.262865;43.578553, 1.262865
4;724840;SALLE DE PROJECTION SPECTACLE DU GRENIER DE MONSIEUR;OCCITANIE;RUE DU GRENIER;12307;Curan;308;12;00000;Zone rurale;14908533;04-Unités urbaines de 100 000 hbts ou plus;1;98;53;234;3063;1503;103,7924152;De 2 à 5 000 entrées;;NON;NON;;FIXE;NON;R;81;71;0;78,77564749;13,28624285;3,195425496;4,742684157;21;21,82980155;44.182478;2.786721;44.182478, 2.786721
5;13161;ESPACE CULTUREL AREA;HAUTS DE FRANCE;6 PLACE DU CHATEAU;62014;Aire-sur-la-Lys;9869;62;00752;Béthune;358847;04-Unités urbaines de 100 000 hbts ou plus;1;268;20;109;7660;2614;193,0374904;De 5 à 10 000 entrées;;NON;NON;;FIXE;NON;B;56;30;1;66,08203287;17,82902914;6,07650877;10,01242922;24;34,88468444;50.639733;2.390569;50.639733, 2.390569
5;36352;FLANDRIA;HAUTS DE FRANCE;45, RUE DES VIVIERS;59043;Bailleul;15250;59;59501;Armentières (partie française);80740;05-Unités urbaines de 20 000 à 100 000 hbts;1;145;53;795;16075;8740;83,92448513;De 10 à 20 000 entrées;;OUI;D;JP;FIXE;NON;C;174;132;3;64,05238061;24,09792897;8,156003131;3,693687282;91;43,2780585;50.740146;2.736651;50.740146, 2.736651
5;50033;CINOS;HAUTS DE FRANCE;442, RUE DE L'IMPÉRATRICE;62108;Berck;13778;62;62401;Berck;44883;05-Unités urbaines de 20 000 à 100 000 hbts;3;566;51;4332;104723;70702;48,1188651;De 100 à 150 000 entrées;;OUI;D;JP;FIXE;NON;C;270;207;89;44,40121786;40,58976094;11,46256202;3,546459179;121;9,101075026;50.408345;1.593105;50.408345, 1.593105
5;71791;FA MI LA;HAUTS DE FRANCE;37, RUE ROGER SALENGRO;59107;Bray-Dunes;4521;59;59134;Bray-Dunes;4521;06-autres communes et unités urbaines;1;156;52;618;12706;6264;102,8416347;De 10 à 20 000 entrées;;OUI;E;JP;FIXE;NON;I;151;122;4;51,28291411;30,03280895;15,68099605;3,003280895;49;18,1879364;51.070372;2.519444;51.070372, 2.519444
5;89644;MILLENIUM;HAUTS DE FRANCE;PLACE DES MANTILLES;59139;Caudry;14170;59;59307;Caudry;18128;06-autres communes et unités urbaines;2;598;53;1259;32623;20779;56,99985562;De 30 à 40 000 entrées;;OUI;E;JP;FIXE;NON;C;196;159;23;37,29499131;39,66503397;18,3220098;4,717964923;76;13,67988624;50.127719;3.415275;50.127719, 3.415275
5;120181;GAUMONT CITE EUROPE;HAUTS DE FRANCE;1001 BOULEVARD DU KENT;62239;Coquelles;2635;62;62504;Calais;93524;05-Unités urbaines de 20 000 à 100 000 hbts;12;2371;50;18667;332954;218858;52,1324329;De 300 à 450 000 entrées;PATHE-GAUMONT;NON;NON;;FIXE;OUI;B;262;216;165;33,92322978;49,73973378;13,00968172;3,327354721;82;2,356762839;50.931939;1.8108;50.931939, 1.8108
5;137112;MEGARAMA;HAUTS DE FRANCE;RUE DE VILLARS;59172;DENAIN;20532;59;59701;Valenciennes (partie française);336069;04-Unités urbaines de 100 000 hbts ou plus;7;986;53;11989;121737;68309;78,2151693;De 100 à 150 000 entrées;MEGARAMA;NON;NON;;FIXE;NON;B;208;156;139;30,1871119;54,75428712;10,39766419;4,660936793;40;3,517703664;50.326793;3.393394;50.326793, 3.393394
5;184364;CINEMA SPORTICA;HAUTS DE FRANCE;LE POLDER CENTRE ZAC DU POLDER;59273;Gravelines;11175;59;59602;Dunkerque;172821;04-Unités urbaines de 100 000 hbts ou plus;2;369;52;1674;22032;15397;43,09281029;De 20 à 30 000 entrées;;OUI;C;JP;FIXE;NON;B;237;178;42;37,93661695;40,13441915;17,08693093;4,842032967;104;15,11479592;51.003064;2.131258;51.003064, 2.131258
5;190194;LE FAMILIA;HAUTS DE FRANCE;PLACE JACQUARD;59279;Halluin;20934;59;59702;Lille (partie française);1062604;04-Unités urbaines de 100 000 hbts ou plus;1;237;49;533;17481;9681;80,57018903;De 10 à 20 000 entrées;;NON;NON;;FIXE;NON;B;183;147;0;47,87445133;39,93746618;9,067404245;3,120678251;64;15,23660634;50.780027;3.127664;50.780027, 3.127664
5;192833;CENTRE CULTUREL;HAUTS DE FRANCE;SQUARE DU 8 MAI;59291;Hautmont;14413;59;59601;Maubeuge (partie française);111761;04-Unités urbaines de 100 000 hbts ou plus;1;560;42;105;3349;2106;59,02184236;De 2 à 5 000 entrées;;NON;NON;;FIXE;NON;B;70;52;0;25,38071066;27,53060615;30,0089579;17,07972529;10;38,93699612;50.257558;3.913904;50.257558, 3.913904
5;213491;CINE LAMBERSART;HAUTS DE FRANCE;15, PLACE FELIX CLOUET;59328;Lambersart;27868;59;59702;Lille (partie française);1062604;04-Unités urbaines de 100 000 hbts ou plus;1;181;48;561;17005;807;2007,187113;De 10 à 20 000 entrées;;NON;NON;;FIXE;NON;B;148;122;0;73,92358647;14,93967353;8,676366217;2,460373788;54;28,63733144;50.651234;3.02797;50.651234, 3.02797
5;226125;PATHE;HAUTS DE FRANCE;RUE FRANÇOIS COURTIN;62510;Liévin;30432;62;00756;Douai - Lens;510310;04-Unités urbaines de 100 000 hbts ou plus;15;3391;53;22151;353040;237947;48,36917465;De 300 à 450 000 entrées;PATHE-GAUMONT;NON;NON;;FIXE;OUI;C;309;245;193;32,42028375;50,80253762;13,07624609;3,700932543;106;3,405947293;50.42314;2.777484;50.42314, 2.777484
5;227281;MAJESTIC;HAUTS DE FRANCE;54 / 56 RUE DE BETHUNE;59350;Lille;238104;59;59702;Lille (partie française);1062604;04-Unités urbaines de 100 000 hbts ou plus;6;587;53;8901;154623;90909;70,08547009;De 150 à 200 000 entrées;UGC;OUI;A;;FIXE;NON;C;277;147;134;62,38994126;12,6704508;9,973599102;14,96600884;237;94,72246056;50.633401;3.06284;50.633401, 3.06284
5;287462;CINEMA 2001;HAUTS DE FRANCE;23 AV DE LA CONCORDE;62604;Neufchâtel-Hardelot;3818;62;62207;Neufchâtel-Hardelot;7463;06-autres communes et unités urbaines;1;198;50;992;11924;9694;23,00391995;De 10 à 20 000 entrées;;NON;NON;;FIXE;NON;C;100;88;22;65,21117281;24,46575803;6,991418476;3,331650681;20;9,069493522;50.632496;1.578876;50.632496, 1.578876
5;423382;MODERN CINE;HAUTS DE FRANCE;1, RUE DU 8 MAI;59586;Templeuve-en-Pévèle;6559;59;59211;Templeuve;10829;06-autres communes et unités urbaines;1;170;53;1072;24781;17336;42,94531611;De 20 à 30 000 entrées;;NON;NON;;FIXE;NON;C;92;77;41;50,34499653;36,19809742;13,12211652;0,334789532;14;4,625811456;50.527126;3.168609;50.527126, 3.168609
5;427703;FOYER;HAUTS DE FRANCE;1 BIS, RUE ALBERT SAMAIN;59592;Thumeries;4001;59;00756;Douai - Lens;510310;04-Unités urbaines de 100 000 hbts ou plus;1;270;44;276;13020;7143;82,27635447;De 10 à 20 000 entrées;;NON;NON;;FIXE;NON;B;126;101;1;44,99512512;36,39096523;13,87715307;4,736756581;24;18,28891778;50.471998;3.073172;50.471998, 3.073172
5;430620;LES 3 AS;HAUTS DE FRANCE;43 RUE DE LONDRES;62826;Le Touquet-Paris-Plage;4527;62;62401;Berck;44883;05-Unités urbaines de 20 000 à 100 000 hbts;5;445;53;8659;82072;60561;35,51955879;De 80 à 100 000 entrées;;OUI;D;PR;FIXE;NON;B;400;274;198;55,90306955;30,83139736;9,712816964;3,552716129;230;20,59339627;50.524614;1.585193;50.524614, 1.585193
6;14073;LE DOME;AUVERGNE-RHONE-ALPES;135 PLACE DE L EUROPE;73011;Albertville;20414;73;73401;Albertville;42745;05-Unités urbaines de 20 000 à 100 000 hbts;2;365;50;2439;38173;25039;52,45417149;De 30 à 40 000 entrées;;OUI;D;JP;FIXE;NON;C;261;184;57;76,87997899;5,558959993;9,530479442;8,030581575;186;60,82173393;45.676502;6.391967;45.676502, 6.391967
6;19951;ESPACE 300;AUVERGNE-RHONE-ALPES;1 RUE JEAN JAURES;74010;Annecy;134942;74;74601;Annecy;182687;04-Unités urbaines de 100 000 hbts ou plus;2;1188;3;28;4260;2207;93,02220208;De 2 à 5 000 entrées;;NON;NON;;FIXE;NON;C;23;5;0;38,33293528;0;61,66706472;0;7;22,92811082;45.902197;6.128472;45.902197, 6.128472
6;19983;CINE ACTUEL MJC;AUVERGNE-RHONE-ALPES;3 RUE DU 8 MAI;74012;Annemasse;37859;74;00652;Genève (SUI) - Annemasse (partie française);195045;04-Unités urbaines de 100 000 hbts ou plus;1;111;49;973;21010;7501;180,0959872;De 20 à 30 000 entrées;;OUI;C;JP;FIXE;NON;C;170;102;0;49,13658645;17,59692513;19,29032977;13,97615865;149;84,75935829;46.191752;6.231982;46.191752, 6.231982
6;28462;CINE DOME;AUVERGNE-RHONE-ALPES;AVENUE LAVOISIER;63014;Aubière;10756;63;63701;Clermont-Ferrand;278692;04-Unités urbaines de 100 000 hbts ou plus;14;2479;53;22594;432598;282515;53,12390493;De 300 à 450 000 entrées;PATHE-GAUMONT;NON;NON;;FIXE;OUI;B;315;234;187;31,95423135;51,48104752;13,85527882;2,709442309;106;3,995951921;45.756523;3.143499;45.756523, 3.143499
6;31236;CINE CRISTAL;AUVERGNE-RHONE-ALPES;1 PLACE DE LA PAIX;15014;Aurillac;26973;15;15401;Aurillac;33482;05-Unités urbaines de 20 000 à 100 000 hbts;7;1073;53;12794;146235;97378;50,17252357;De 100 à 150 000 entrées;;OUI;D;JP;FIXE;NON;C;409;298;184;49,07794737;36,57135626;11,01682403;3,33387234;210;19,52726787;44.92393;2.442797;44.92393, 2.442797
6;42201;STELLA CINEMA;BOURGOGNE-FRANCHE-COMTE;14 RUE DES JUIFS;25047;Baume-les-Dames;5144;25;25201;Baume-les-Dames;5144;06-autres communes et unités urbaines;2;194;53;1130;14038;7998;75,51887972;De 10 à 20 000 entrées;;NON;NON;;FIXE;NON;I;282;245;0;55,46439862;25,62848111;10,31913292;8,587987355;133;31,51437603;47.353131;6.359659;47.353131, 6.359659
6;44239;COUR DE L'ECOLE;AUVERGNE-RHONE-ALPES;COUR DE L'ECOLE;07028;Beaulieu;534;07;00000;Zone rurale;14908533;04-Unités urbaines de 100 000 hbts ou plus;1;100;10;23;2171;2654;-18,19894499;De 2 à 5 000 entrées;;NON;NON;;ITINERANT;NON;R;11;6;0;4,652233994;95,34776601;0;0;2;10,31782589;44.368236;4.268552;44.368236, 4.268552
6;45602;L'ORON;AUVERGNE-RHONE-ALPES;2 AV MICHEL VILLAZ;38034;Beaurepaire;5088;38;38202;Beaurepaire;6063;06-autres communes et unités urbaines;2;374;32;1025;25558;29080;-12,11141678;De 20 à 30 000 entrées;;OUI;E;JP;FIXE;NON;C;170;129;21;61,24706264;23,78251357;12,5313994;2,43902439;79;28,57142857;45.338891;5.057286;45.338891, 5.057286
6;52532;FOYER RURAL;AUVERGNE-RHONE-ALPES;FOYER RURAL;63038;Besse-et-Saint-Anastaise;1543;63;00000;Zone rurale;14908533;04-Unités urbaines de 100 000 hbts ou plus;1;336;44;557;4559;3989;14,28929556;De 2 à 5 000 entrées;;NON;NON;;ITINERANT;NON;R;177;153;3;58,01645541;26,32866355;7,471647765;8,183233267;103;28,28552368;45.512152;2.93212;45.512152, 2.93212
6;62264;Ciné Château;AUVERGNE-RHONE-ALPES;Ecoquartier du Château des Sires de Faucigny;74042;Bonneville;12902;74;74502;Cluses;93895;05-Unités urbaines de 20 000 à 100 000 hbts;3;632;53;4003;85986;43701;96,75979955;De 80 à 100 000 entrées;;NON;NON;;FIXE;NON;C;239;199;104;38,21814268;47,43970381;10,52507068;3,817082836;108;10,21043044;46.068578;6.412198;46.068578, 6.412198
6;67734;FOYER;AUVERGNE-RHONE-ALPES;PLACE DES NOYERS;42023;Bourg-Argental;3010;42;42102;Bourg-Argental;3010;06-autres communes et unités urbaines;1;213;52;445;16046;8541;87,8702728;De 10 à 20 000 entrées;;OUI;E;;FIXE;NON;I;194;147;0;65,3931187;20,08428907;8,366726544;6,15586569;87;32,33383999;45.295097;4.558306;45.295097, 4.558306
6;67904;CINEMA LES ECRINS;AUVERGNE-RHONE-ALPES;RUE GAMBETTA;38052;Le Bourg-d'Oisans;3386;38;38116;Le Bourg-d'Oisans;3386;06-autres communes et unités urbaines;1;106;50;319;6060;3339;81,49146451;De 5 à 10 000 entrées;;OUI;E;;FIXE;NON;I;156;131;10;67,72426818;20,35882908;7,799811143;4,117091596;65;42,43626062;45.055549;6.028706;45.055549, 6.028706
6;75492;PARIS;AUVERGNE-RHONE-ALPES;PLACE DE LA LIBERTE;43040;Brioude;6851;43;43202;Brioude;7515;06-autres communes et unités urbaines;1;313;44;219;3275;2572;27,33281493;De 2 à 5 000 entrées;;OUI;E;JP;FIXE;NON;C;92;79;0;72,34567901;17,90123457;7,345679012;2,407407407;24;18,51851852;45.292071;3.387558;45.292071, 3.387558
6;76073;LES ALIZES;AUVERGNE-RHONE-ALPES;214  AV FRANKLIN ROOSEVELT;69029;Bron;42819;69;00758;Lyon;1720030;04-Unités urbaines de 100 000 hbts ou plus;2;345;49;2652;48799;30999;57,42120714;De 40 à 50 000 entrées;;OUI;C;JP;FIXE;NON;B;289;208;81;73,31619073;11,90057292;8,490097893;6,293138449;190;57,23823702;45.731192;4.914994;45.731192, 4.914994
6;95076;MEGARAMA;BOURGOGNE-FRANCHE-COMTE;1 RUE RENE CASSIN;71076;Chalon-sur-Saône;46567;71;71501;Chalon-sur-Saône;77070;05-Unités urbaines de 20 000 à 100 000 hbts;12;1637;53;20912;420900;254702;65,25194148;De 300 à 450 000 entrées;MEGARAMA;NON;NON;;FIXE;OUI;C;447;331;258;41,03424424;43,54359908;11,56517646;3,856980224;238;14,30582042;46.775786;4.864432;46.775786, 4.864432
6;95413;ASTREE;AUVERGNE-RHONE-ALPES;7 BOULEVARD DU THEATRE;73065;Chambéry;60749;73;73601;Chambéry;202124;04-Unités urbaines de 100 000 hbts ou plus;4;584;53;6144;90735;54980;65,03273918;De 80 à 100 000 entrées;;OUI;B;RDJPPR;FIXE;NON;C;318;181;155;70,80533038;6,398531144;12,56841959;10,22771888;265;86,90385459;45.566066;5.923359;45.566066, 5.923359
6;96184;VOX;AUVERGNE-RHONE-ALPES;22 COURS DU BARTAVEL;74056;Chamonix-Mont-Blanc;9019;74;74301;Chamonix-Mont-Blanc;12270;06-autres communes et unités urbaines;3;508;41;2461;36623;30162;21,4209933;De 30 à 40 000 entrées;;OUI;E;;FIXE;NON;C;198;163;62;41,10163607;42,32382434;12,86353157;3,711008028;107;19,58556707;45.923063;6.86902;45.923063, 6.86902
6;101692;ALPHA;AUVERGNE-RHONE-ALPES;24 AVENUE LAMARTINE;69044;Charbonnières-les-Bains;5385;69;00758;Lyon;1720030;04-Unités urbaines de 100 000 hbts ou plus;1;300;49;770;26111;13028;100,4221676;De 20 à 30 000 entrées;;OUI;C;;FIXE;NON;B;218;175;11;74,44620575;13,98203471;7,763280901;3,808478641;127;39,95041255;45.780835;4.739883;45.780835, 4.739883
6;115511;LES ARTS;BOURGOGNE-FRANCHE-COMTE;PLACE DU MARCHE;71137;Cluny;5176;71;71112;Cluny;5176;06-autres communes et unités urbaines;1;289;48;452;12238;5630;117,3712256;De 10 à 20 000 entrées;;OUI;E;JPPR;FIXE;NON;I;164;112;0;77,19114828;7,553580763;12,38020561;2,875065342;106;64,79351803;46.43482;4.657216;46.43482, 4.657216
6;125201;GERGOVIE;AUVERGNE-RHONE-ALPES;AVENUE DES DOMES;63124;Cournon-d'Auvergne;20712;63;63701;Clermont-Ferrand;278692;04-Unités urbaines de 100 000 hbts ou plus;3;476;53;4487;50319;26734;88,220992;De 50 à 80 000 entrées;;OUI;C;;FIXE;NON;B;167;133;58;65,84092792;24,78458989;6,172328086;3,202154101;95;37,3902237;45.731555;3.199146;45.731555, 3.199146
6;127103;LA TURBINE;AUVERGNE-RHONE-ALPES;PLACE CHORUS;74010;Annecy;134942;74;74601;Annecy;182687;04-Unités urbaines de 100 000 hbts ou plus;1;183;53;1339;40713;20886;94,92961793;De 40 à 50 000 entrées;;NON;NON;;FIXE;NON;C;350;246;9;62,09213316;13,93837597;15,03428147;8,935209406;246;65,90026709;45.904817;6.100656;45.904817, 6.100656
6;127232;ESPACE CULTUREL EOLE;AUVERGNE-RHONE-ALPES;16, RUE CENTRALE;69069;Craponne;11657;69;00758;Lyon;1720030;04-Unités urbaines de 100 000 hbts ou plus;1;349;43;278;10251;6548;56,55161881;De 10 à 20 000 entrées;;OUI;C;;FIXE;NON;B;144;122;0;67,29384437;13,40301974;11,13821138;8,164924506;76;48,62950058;45.745756;4.718034;45.745756, 4.718034
6;138172;LE PESTEL;AUVERGNE-RHONE-ALPES;AV DE LA DIVISION DU TEXAS;26113;Die;5014;26;26110;Die;5014;06-autres communes et unités urbaines;1;207;50;926;27887;15866;75,76578848;De 20 à 30 000 entrées;;OUI;E;RDJPPR;FIXE;NON;I;222;166;2;64,19618323;17,21684797;12,26709828;6,319870516;168;68,57003049;44.750763;5.3764;44.750763, 5.3764
6;138712;OLYMPIA;BOURGOGNE-FRANCHE-COMTE;16 AV DU MARECHAL FOCH;21231;Dijon;162454;21;21701;Dijon;253465;04-Unités urbaines de 100 000 hbts ou plus;10;1634;51;15321;182059;140325;29,74095849;De 150 à 200 000 entrées;;NON;NON;;FIXE;OUI;C;174;134;120;27,76697948;53,00827045;14,9575339;4,267216173;40;7,007323661;47.323594;5.030088;47.323594, 5.030088
6;140713;RENE FALLET;AUVERGNE-RHONE-ALPES;ROUTE DE VICHY;03102;Dompierre-sur-Besbre;3062;03;03105;Dompierre-sur-Besbre;3062;06-autres communes et unités urbaines;1;130;53;1083;12399;8663;43,1259379;De 10 à 20 000 entrées;;OUI;E;JPPR;FIXE;NON;I;265;186;8;53,62503411;23,03283908;12,34421905;10,99790776;125;32,42063131;46.512529;3.675133;46.512529, 3.675133
6;176722;LE CLUB;AUVERGNE-RHONE-ALPES;ROUTE TANINGES;74134;Les Gets;1250;74;00000;Zone rurale;14908533;04-Unités urbaines de 100 000 hbts ou plus;1;220;26;303;5461;2836;92,55994358;De 5 à 10 000 entrées;;NON;NON;;FIXE;NON;R;85;74;49;51,29097235;41,76890679;5,475187695;1,464933162;16;6,372459257;46.152434;6.657281;46.152434, 6.657281
6;176873;CINEMA LE PATIO;AUVERGNE-RHONE-ALPES;AVENUE DE LA GARE;01173;Gex;13467;01;01301;Gex;18635;06-autres communes et unités urbaines;1;110;53;1038;8971;6834;31,27011999;De 5 à 10 000 entrées;;OUI;E;RDJPPR;FIXE;NON;C;311;198;3;58,04178203;11,86760634;15,00125849;15,08935313;224;63,74276365;46.332254;6.05905;46.332254, 6.05905
6;177140;LE LAUSSY;AUVERGNE-RHONE-ALPES;15 RUE VICTOR HUGO;38179;Gières;7227;38;38701;Grenoble;523867;04-Unités urbaines de 100 000 hbts ou plus;1;294;14;18;1097;545;101,2844037;Moins de 2000 entrées;;NON;NON;;FIXE;NON;B;18;16;0;85,32360985;6,472196901;8,204193254;0;6;35,5515041;45.1800066;5.791162699999973;45.1800066, 5.791162699999973
6;182462;LE CHARMIEUX;AUVERGNE-RHONE-ALPES;LE CHINAILLON;74136;Le Grand-Bornand;2135;74;74101;Le Grand-Bornand;2135;06-autres communes et unités urbaines;1;150;28;338;5772;2781;107,5512406;De 5 à 10 000 entrées;;NON;NON;;FIXE;NON;I;111;96;43;54,0311174;37,92432815;5,90523338;2,139321075;32;10,04243281;45.969321;6.446761;45.969321, 6.446761
6;185241;LE SCIALET;AUVERGNE-RHONE-ALPES;LES DOLOMITES;38186;Gresse-en-Vercors;380;38;00000;Zone rurale;14908533;04-Unités urbaines de 100 000 hbts ou plus;1;154;51;102;2922;1549;88,63783086;De 2 à 5 000 entrées;;NON;NON;;FIXE;NON;R;82;66;0;63,26158336;25,13681138;7,479022255;4,122582999;20;20,79533017;44.900658;5.555056;44.900658, 5.555056
6;187852;LE DANTON;BOURGOGNE-FRANCHE-COMTE;10 RUE DANTON;71230;Gueugnon;6862;71;71204;Gueugnon;6862;06-autres communes et unités urbaines;1;180;53;1217;13199;7896;67,16058764;De 10 à 20 000 entrées;;OUI;E;JPPR;FIXE;NON;I;234;176;14;58,46372688;27,57230915;12,19377272;1,770191244;117;36,41536273;46.600458;4.067349;46.600458, 4.067349
6;212450;VOX;BOURGOGNE-FRANCHE-COMTE;5 GRANDE RUE MAISON DIEU;21336;Laignes;675;21;00000;Zone rurale;14908533;04-Unités urbaines de 100 000 hbts ou plus;1;66;48;150;2385;1689;41,20781528;De 2 à 5 000 entrées;;OUI;E;;FIXE;NON;R;144;117;0;76,63113006;12,28144989;7,76119403;3,326226013;84;52,40938166;47.842504;4.365197;47.842504, 4.365197
6;216372;SALLE LA RECRE;AUVERGNE-RHONE-ALPES;ECOLE PRIMAIRE DU VILLAGE;38205;Lans-en-Vercors;2794;38;00000;Zone rurale;14908533;04-Unités urbaines de 100 000 hbts ou plus;1;92;2;23;1025;256;300,390625;Moins de 2000 entrées;;NON;NON;;FIXE;NON;R;15;13;1;54,34146341;23,02439024;19,51219512;3,12195122;8;35,41463415;45.126881;5.59068;45.126881, 5.59068
6;216451;LA RAMASSE;AUVERGNE-RHONE-ALPES;9 RUE DES JARDINS;73290;Val-Cenis;2106;73;00000;Zone rurale;14908533;04-Unités urbaines de 100 000 hbts ou plus;1;180;46;215;2846;1220;133,2786885;De 2 à 5 000 entrées;;NON;NON;;FIXE;NON;R;115;103;4;63,26366559;27,49196141;3,45659164;5,78778135;33;23,27170418;45.285761;6.879713;45.285761, 6.879713
6;232572;LE PALACE;BOURGOGNE-FRANCHE-COMTE;9 RUE PASTEUR;39300;Lons-le-Saunier;17921;39;39401;Lons-le-Saunier;27869;05-Unités urbaines de 20 000 à 100 000 hbts;3;445;49;2476;17242;14129;22,0326987;De 10 à 20 000 entrées;MEGARAMA;OUI;D;;FIXE;NON;C;149;103;57;81,35288836;7,674348997;8,434600419;2,538162227;91;55,79766537;46.673494;5.556147;46.673494, 5.556147
6;237903;PATHE;AUVERGNE-RHONE-ALPES;79 RUE DE LA REPUBLIQUE;69123;Lyon;528633;69;00758;Lyon;1720030;04-Unités urbaines de 100 000 hbts ou plus;10;2104;53;15711;482527;319352;51,0956562;De 450 à 700 000 entrées;PATHE-GAUMONT;NON;NON;;FIXE;OUI;C;221;157;138;33,75624808;44,52667206;15,47454045;6,242539412;94;17,31609062;45.758734;4.834873;45.758734, 4.834873
6;237945;LE CINEMA;AUVERGNE-RHONE-ALPES;18 RUE SAINT POLYCARPE;69123;Lyon;528633;69;00758;Lyon;1720030;04-Unités urbaines de 100 000 hbts ou plus;1;46;47;943;2423;1250;93,84;De 2 à 5 000 entrées;;NON;NON;;FIXE;NON;C;134;111;7;61,36645963;4,223602484;17,76397516;16,64596273;126;97,47412008;45.768607;4.834444;45.768607, 4.834444
6;238421;CINEMA OPERA;AUVERGNE-RHONE-ALPES;6 RUE JOSEPH SERLIN;69123;Lyon;528633;69;00758;Lyon;1720030;04-Unités urbaines de 100 000 hbts ou plus;1;97;50;1234;9862;4280;130,4205607;De 5 à 10 000 entrées;;OUI;A;RD;FIXE;NON;C;170;110;36;39,11232746;4,259876249;47,72727273;8,90052356;134;60,41170871;45.76732;4.835049;45.76732, 4.835049
6;239353;CINE MARIVAUX;BOURGOGNE-FRANCHE-COMTE;70 RUE MICHEL DEBRE;71270;Mâcon;35137;71;00464;Mâcon;51272;05-Unités urbaines de 20 000 à 100 000 hbts;11;2086;53;16924;326530;214419;52,28594481;De 300 à 450 000 entrées;PATHE-GAUMONT;OUI;D;JPPR;FIXE;OUI;C;471;312;241;47,2211687;38,49678877;10,85548071;3,426561809;266;17,26414178;46.316471;4.838508;46.316471, 4.838508
6;240661;SALLE SAINT MICHEL;BOURGOGNE-FRANCHE-COMTE;3 RUE AUBERT;25356;Maîche;4362;25;25109;Maîche;4362;06-autres communes et unités urbaines;1;320;50;393;12959;6078;113,2115828;De 10 à 20 000 entrées;;OUI;E;;FIXE;NON;I;137;115;2;58,93006408;19,47617721;6,53849726;15,05526145;42;27,26850562;47.252947;6.800494;47.252947, 6.800494
6;261603;CINE-MEYZIEU;AUVERGNE-RHONE-ALPES;27 RUE LOUIS SAULNIER;69282;Meyzieu;35468;69;00758;Lyon;1720030;04-Unités urbaines de 100 000 hbts ou plus;3;408;53;3079;50770;28034;81,10151958;De 50 à 80 000 entrées;;OUI;C;JP;FIXE;NON;B;256;188;88;51,94498129;35,12068753;9,77219458;3,162136601;126;21,49348246;45.765107;5.00317;45.765107, 5.00317
