N° auto;nom;région administrative;adresse;code INSEE;commune;population de la commune;DEP;N°UU;unité urbaine;population unité urbaine;situation géographique;écrans;fauteuils;semaines d'activité;séances;entrées 2021;entrées 2020;évolution entrées;tranche d'entrées;propriétaire;programmateur;AE;catégorie Art et Essai;label Art et Essai;genre;multiplexe;zone de la commune;nombre de films programmés;nombre de films inédits;nombre de films en semaine 1;PdM en entrées des films français;PdM en entrées des films américains;PdM en entrées des films européens;PdM en entrées des autres films;films Art et Essai;part des séances de films Art et Essai;PdM en entrées des films Art et Essai;latitude;longitude
31;UGC NORMANDIE;ILE-DE-FRANCE;116 AVENUE DES CHAMPS ELYSEES;75108;Paris 8e Arrondissement;36827;75;00851;Paris;10909327;01-Paris;4;1610;32;4 004;119 434;75 648;57,9;De 100 à 150 000 entrées;UGC SAS;UGC;NON;NON;;FIXE;NON;C;80;48;45;45,8;29,8;24,5;0,0;22;41,6;35,8;48.872265;2.300938
35;BALZAC;ILE-DE-FRANCE;1 RUE BALZAC;75108;Paris 8e Arrondissement;36827;75;00851;Paris;10909327;01-Paris;3;589;32;2 855;55 067;45 293;21,6;De 50 à 80 000 entrées;CINELBA;;OUI;A;RD;FIXE;NON;C;136;58;40;68,8;5,6;11,8;13,8;53;97,0;97,2;48.872431;2.299525
54;GAUMONT CHAMPS ELYSEES MARIGNAN;ILE-DE-FRANCE;27/33 AVENUE DES CHAMPS ELYSEES;75108;Paris 8e Arrondissement;36827;75;00851;Paris;10909327;01-Paris;6;1597;32;5 335;169 651;80 996;109,5;De 150 à 200 000 entrées;LES CINEMAS PATHE GAUMONT;PATHE GAUMONT;NON;NON;;FIXE;NON;C;87;77;66;22,1;55,6;20,8;1,5;9;6,4;7,6;48.869654;2.306873
55;ELYSEES LINCOLN;ILE-DE-FRANCE;14 RUE LINCOLN;75108;Paris 8e Arrondissement;36827;75;00851;Paris;10909327;01-Paris;3;448;32;2 841;23 035;19 379;18,9;De 20 à 30 000 entrées;STUDIO DU DRAGON;;OUI;A;RD;FIXE;NON;C;102;62;57;56,0;5,3;22,1;16,6;60;99,3;99,5;48.870512;2.303157
204; UGC OPERA;ILE-DE-FRANCE;32 BD DES ITALIENS;75109;Paris 9e Arrondissement;60370;75;00851;Paris;10909327;01-Paris;4;760;32;4 044;81 837;55 232;48,2;De 80 à 100 000 entrées;UGC SAS;UGC;NON;NON;;FIXE;NON;C;63;37;39;63,9;12,2;23,9;0,0;20;53,4;44,7;48.871332;2.335302
301;MAX LINDER;ILE-DE-FRANCE;24 BD POISSONNIERE;75109;Paris 9e Arrondissement;60370;75;00851;Paris;10909327;01-Paris;1;591;32;868;59 031;37 409;57,8;De 50 à 80 000 entrées;PARAFRANCE COMMUNICATION;;OUI;A;;FIXE;NON;C;58;14;11;22,5;48,9;22,2;6,4;10;72,5;74,2;48.871363;2.344886
311;GRAND REX;ILE-DE-FRANCE;5 BD POISSONNIERE;75102;Paris 2e Arrondissement;21561;75;00851;Paris;10909327;01-Paris;7;4274;32;6 119;473 518;148 381;219,1;De 450 à 700 000 entrées;THEATRE LE REX;UGC;NON;NON;;FIXE;NON;C;127;82;78;16,7;66,8;10,9;5,6;5;8,1;10,1;48.86872;2.347608
321;PATHE;ILE-DE-FRANCE;32 RUE LOUIS LEGRAND;75102;Paris 2e Arrondissement;21561;75;00851;Paris;10909327;01-Paris;6;1138;32;5 513;181 402;123 537;46,8;De 150 à 200 000 entrées;GAUMONT;PATHE GAUMONT;NON;NON;;FIXE;NON;C;97;86;67;47,5;32,7;19,3;0,5;40;40,6;31,2;48.870632;2.334338
451;UGC MONTPARNASSE;ILE-DE-FRANCE;83 BD DU MONTPARNASSE;75106;Paris 6e Arrondissement;41384;75;00851;Paris;10909327;01-Paris;7;1592;32;7 027;190 458;124 223;53,3;De 150 à 200 000 entrées;UGC SAS;UGC;NON;NON;;FIXE;NON;C;81;74;74;46,7;37,3;16,0;0,0;18;26,2;28,5;48.84351;2.325646
481;GAUMONT PARNASSE;ILE-DE-FRANCE;3 RUE D'ODESSA;75114;Paris 14e Arrondissement;137574;75;00851;Paris;10909327;01-Paris;15;2876;32;17 318;475 104;283 901;67,3;De 450 à 700 000 entrées;PARAFRANCE COMMUNICATION;PATHE GAUMONT;NON;NON;;FIXE;OUI;C;219;199;195;47,2;35,8;14,9;2,1;85;34,1;28,4;48.843074;2.324424
483;ENTREPOT;ILE-DE-FRANCE;7 ET 9 RUE FRANCIS DE PRESSENSE;75114;Paris 14e Arrondissement;137574;75;00851;Paris;10909327;01-Paris;3;268;32;2 873;29 174;19 479;49,8;De 20 à 30 000 entrées;MANUFACTURE A FILMS;;OUI;A;RDJP;FIXE;NON;C;219;119;22;73,6;9,1;11,0;6,3;101;89,3;89,1;48.83393;2.31652
531;MK2 BEAUBOURG;ILE-DE-FRANCE;50 RUE RAMBUTEAU;75103;Paris 3e Arrondissement;34305;75;00851;Paris;10909327;01-Paris;6;557;32;8 357;158 940;129 665;22,6;De 150 à 200 000 entrées;MK2 CINEMAS;MK2 (Karmitz);OUI;A;RDPR;FIXE;NON;C;212;77;65;54,0;19,6;14,9;11,5;74;98,0;98,9;48.861555;2.352217
612;UGC MAILLOT;ILE-DE-FRANCE;PALAIS CONGRES PL PORTE MAILLOT;75117;Paris 17e Arrondissement;167284;75;00851;Paris;10909327;01-Paris;4;762;32;4 159;62 847;50 265;25,0;De 50 à 80 000 entrées;PARAFRANCE COMMUNICATION;UGC;NON;NON;;FIXE;NON;C;100;72;49;68,2;10,2;20,8;0,8;50;52,5;42,8;48.878512;2.282965
721;MK2 ODEON COTE SAINT-MICHEL;ILE-DE-FRANCE;7 RUE HAUTEFEUILLE;75106;Paris 6e Arrondissement;41384;75;00851;Paris;10909327;01-Paris;4;510;32;5 469;76 108;60 802;25,2;De 50 à 80 000 entrées;LES CINEMAS PATHE GAUMONT;Karmitz;OUI;A;RD;FIXE;NON;C;99;77;42;66,9;8,2;10,8;14,1;64;93,0;94,1;48.852188;2.342788
731;MK2 ODEON COTE SAINT-GERMAIN;ILE-DE-FRANCE;113 BD ST GERMAIN;75106;Paris 6e Arrondissement;41384;75;00851;Paris;10909327;01-Paris;5;678;32;6 589;143 364;101 335;41,5;De 100 à 150 000 entrées;PARAFRANCE COMMUNICATION;Karmitz;NON;NON;;FIXE;NON;C;66;63;62;57,5;23,7;16,4;2,4;41;60,2;57,1;48.852437;2.338266
733;STUDIO GALANDE;ILE-DE-FRANCE;42 RUE GALANDE;75105;Paris 5e Arrondissement;59050;75;00851;Paris;10909327;01-Paris;1;97;32;687;8 084;7 337;10,2;De 5 à 10 000 entrées;STUDIO GALANDE BERUCHET;;OUI;A;;FIXE;NON;C;86;55;5;56,3;13,7;18,9;11,1;45;85,2;81,4;48.851619;2.347076
741;LUXEMBOURG;ILE-DE-FRANCE;67 69 RUE MONSIEUR LE PRINCE;75106;Paris 6e Arrondissement;41384;75;00851;Paris;10909327;01-Paris;3;334;32;3 160;43 660;33 324;31,0;De 40 à 50 000 entrées;CINEPOQUE;;OUI;A;RD;FIXE;NON;C;150;78;35;68,8;11,7;12,8;6,7;66;87,0;82,2;48.84824;2.340797
751;ST ANDRE DES ARTS;ILE-DE-FRANCE;30 RUE ST ANDRE DES ARTS;75106;Paris 6e Arrondissement;41384;75;00851;Paris;10909327;01-Paris;3;510;32;3 057;24 297;18 589;30,7;De 20 à 30 000 entrées;SOCIETE CINEMA SAINT ANDRE DES ARTS;;OUI;A;;FIXE;NON;C;204;63;37;80,5;1,8;7,8;10,0;45;87,2;85,7;48.853361;2.34211
801;MK2 PARNASSE;ILE-DE-FRANCE;11 RUE JULES CHAPLAIN;75106;Paris 6e Arrondissement;41384;75;00851;Paris;10909327;01-Paris;3;250;32;4 364;36 575;27 111;34,9;De 30 à 40 000 entrées;MK2 CINEMAS;Karmitz;OUI;A;;FIXE;NON;C;123;84;5;67,9;12,6;5,6;13,9;72;87,5;86,6;48.842813;2.330525
802;UGC ROTONDE;ILE-DE-FRANCE;103 BD DU MONTPARNASSE;75106;Paris 6e Arrondissement;41384;75;00851;Paris;10909327;01-Paris;3;467;32;2 700;40 081;39 046;2,7;De 40 à 50 000 entrées;UGC SAS;UGC;NON;NON;;FIXE;NON;C;63;38;32;78,8;6,5;11,5;3,2;33;91,3;90,9;48.842318;2.328975
803;BRETAGNE;ILE-DE-FRANCE;73 BD DU MONTPARNASSE;75106;Paris 6e Arrondissement;41384;75;00851;Paris;10909327;01-Paris;2;1020;7;308;3 804;10 222;-62,8;De 2 à 5 000 entrées;CINEMAS RYTMANN SAS;;NON;NON;;FIXE;NON;C;9;9;7;2,6;77,0;20,4;0,0;1;13,6;6,9;48.843752;2.324925
814;LUCERNAIRE FORUM;ILE-DE-FRANCE;53 RUE NOTRE DAME DES CHAMPS;75106;Paris 6e Arrondissement;41384;75;00851;Paris;10909327;01-Paris;3;148;18;1 903;13 216;17 790;-25,7;De 10 à 20 000 entrées;LE LUCERNAIRE FORUM;;OUI;A;JP;FIXE;NON;C;129;71;6;69,8;10,5;17,5;2,2;59;86,7;79,7;48.844244;2.330407
821;PARNASSIEN;ILE-DE-FRANCE;98 BD DU MONTPARNASSE;75114;Paris 14e Arrondissement;137574;75;00851;Paris;10909327;01-Paris;7;842;32;8 067;95 714;55 381;72,8;De 80 à 100 000 entrées;LES CINQ PARNASSIENS;MULTICINE (Pollack);OUI;A;RD;FIXE;NON;C;119;96;93;51,9;10,9;20,7;16,5;91;96,5;97,1;48.842443;2.327625
883; CHRISTINE CINEMA CLUB;ILE-DE-FRANCE;4 RUE CHRISTINE;75106;Paris 6e Arrondissement;41384;75;00851;Paris;10909327;01-Paris;2;234;32;1 825;29 425;30 183;-2,5;De 20 à 30 000 entrées;TRIOMPH CINEMA;;OUI;A;PR;FIXE;NON;C;250;13;4;18,0;3,0;1,4;77,6;9;18,9;14,5;48.854455;2.340132
891;ST GERMAIN DES PRES;ILE-DE-FRANCE;22 RUE GUILLAUME APOLLINAIRE;75106;Paris 6e Arrondissement;41384;75;00851;Paris;10909327;01-Paris;1;252;13;87;1 455;5 017;-71,0;Moins de 2000 entrées;CINEMA LE BILBOQUET;;OUI;A;;FIXE;NON;C;50;8;1;100,0;0,0;0,0;0,0;8;100,0;100,0;48.85467;2.333052
1031;PUBLICIS ELYSEES;ILE-DE-FRANCE;133 AV DES CHAMPS ELYSEES;75108;Paris 8e Arrondissement;36827;75;00851;Paris;10909327;01-Paris;2;609;32;2 145;35 847;19 663;82,3;De 30 à 40 000 entrées;EUROPALACES ETOILE;;NON;NON;;FIXE;NON;C;136;56;46;68,1;20,3;9,6;1,9;25;57,5;55,5;48.872794;2.296984
1392;L'ARCHIPEL;ILE-DE-FRANCE;17 BD DE STRASBOURG;75110;Paris 10e Arrondissement;88971;75;00851;Paris;10909327;01-Paris;2;204;30;1 756;16 679;12 905;29,2;De 10 à 20 000 entrées;PARIS CINE;;OUI;A;RDJPPR;FIXE;NON;C;200;65;7;58,9;8,6;15,1;17,5;60;95,2;96,5;48.870455;2.35466
1393;LE BRADY;ILE-DE-FRANCE;39 BOULEVARD DE STRASBOURG;75110;Paris 10e Arrondissement;88971;75;00851;Paris;10909327;01-Paris;2;139;32;3 182;37 547;34 632;8,4;De 30 à 40 000 entrées;SOLO LIMITED;;OUI;A;RDJPPR;FIXE;NON;C;227;97;2;66,5;15,1;9,7;8,7;84;93,3;91,8;48.871771;2.355398
1681;UGC CINE CITE LES HALLES;ILE-DE-FRANCE;101 RUE BERGER;75101;Paris 1er Arrondissement;16236;75;00851;Paris;10909327;01-Paris;27;3896;32;37 275;1 408 789;1 082 659;30,1;De 1 à 1,5 million d'entrées;UGC CINE CITE ILE DE FRANCE;UGC;NON;NON;;FIXE;OUI;C;350;294;290;43,1;39,6;13,6;3,6;172;51,4;41,9;48.861424;2.345829
1791;LUMINOR HOTEL DE VILLE;ILE-DE-FRANCE;20 RUE DU TEMPLE;75104;Paris 4e Arrondissement;29018;75;00851;Paris;10909327;01-Paris;2;238;32;2 239;37 359;33 837;10,4;De 30 à 40 000 entrées;CARLOTTA CINEMAS                                                ;;OUI;A;RDJP;FIXE;NON;C;168;83;31;52,0;7,3;24,8;16,0;65;85,3;83,8;48.858689;2.353591
2251;MAJESTIC PASSY;ILE-DE-FRANCE;18 - 20 RUE DE PASSY;75116;Paris 16e Arrondissement;168286;75;00851;Paris;10909327;01-Paris;3;617;32;3 239;73 590;42 641;72,6;De 50 à 80 000 entrées;DULAC CINEMAS;;NON;NON;;FIXE;NON;C;131;67;43;56,6;17,9;24,9;0,6;32;36,5;33,1;48.858204;2.282104
2982;CAUMARTIN;ILE-DE-FRANCE;101 RUE ST LAZARE;75109;Paris 9e Arrondissement;60370;75;00851;Paris;10909327;01-Paris;5;501;32;5 583;95 909;78 870;21,6;De 80 à 100 000 entrées;CINEVOG SARL;;OUI;A;;FIXE;NON;C;74;67;66;77,2;5,5;10,6;6,7;57;82,1;81,0;48.87561;2.32791
3211;LE CINEMA DES CINEASTES;ILE-DE-FRANCE;7 AVENUE DE CLICHY;75117;Paris 17e Arrondissement;167284;75;00851;Paris;10909327;01-Paris;3;478;32;3 112;76 311;70 514;8,2;De 50 à 80 000 entrées;SARL DES AUTEURS REALISATEURS PRODUCTEURS ARP;MC4 (Gardebosc);OUI;A;RDJP;FIXE;NON;C;90;48;39;63,3;0,0;17,0;19,7;46;98,0;99,1;48.884303;2.326888
3222;PATHE WEPLER;ILE-DE-FRANCE;132 -140 BOULEVARD DE CLICHY;75118;Paris 18e Arrondissement;194491;75;00851;Paris;10909327;01-Paris;11;1757;32;14 289;424 464;255 340;66,2;De 300 à 450 000 entrées;LES IMAGES;PATHE GAUMONT;NON;NON;;FIXE;OUI;C;191;173;145;46,2;37,8;15,3;0,7;75;31,5;28,2;48.883938;2.328034
3741;STUDIO 28;ILE-DE-FRANCE;10 RUE THOLOZE;75118;Paris 18e Arrondissement;194491;75;00851;Paris;10909327;01-Paris;1;172;28;784;24 213;18 127;33,6;De 20 à 30 000 entrées;STUDIO 28;;OUI;A;;FIXE;NON;C;93;82;3;60,6;20,9;9,2;9,4;56;70,1;72,3;48.886142;2.335342
4731;MK2 QUAI DE SEINE;ILE-DE-FRANCE;14 QUAI DE LA SEINE;75119;Paris 19e Arrondissement;186530;75;00851;Paris;10909327;01-Paris;6;992;32;8 092;198 514;172 475;15,1;De 150 à 200 000 entrées;MK2 QUAI DE SEINE;MK2 (Karmitz);OUI;A;RDJP;FIXE;NON;C;169;109;76;68,0;18,6;8,3;5,1;87;87,1;87,9;48.885073;2.371493
5691;MK2 GAMBETTA;ILE-DE-FRANCE;6 RUE BELGRAND;75120;Paris 20e Arrondissement;196530;75;00851;Paris;10909327;01-Paris;6;1140;32;8 112;190 956;144 054;32,6;De 150 à 200 000 entrées;MK2 CINEMAS;MK2 (Karmitz);NON;NON;;FIXE;NON;C;133;88;74;54,8;29,8;10,9;4,6;60;62,9;61,7;48.864763;2.399555
5841;MK2 BASTILLE COTE FAUBOURG SAINT-ANTOINE;ILE-DE-FRANCE;5 RUE DU FAUBOURG ST ANTOINE;75111;Paris 11e Arrondissement;146735;75;00851;Paris;10909327;01-Paris;3;423;32;3 998;85 778;78 853;8,8;De 80 à 100 000 entrées;BASTILLE SAINT ANTOINE (DOUBLON N° 95 7200);Karmitz;OUI;A;RD;FIXE;NON;C;57;48;40;64,5;10,6;10,7;14,2;46;96,2;94,5;48.853157;2.370719
5852;MAJESTIC BASTILLE;ILE-DE-FRANCE;4 BD RICHARD LENOIR;75111;Paris 11e Arrondissement;146735;75;00851;Paris;10909327;01-Paris;2;356;32;2 501;53 823;40 402;33,2;De 50 à 80 000 entrées;DULAC CINEMAS;;OUI;A;RDJP;FIXE;NON;C;100;63;33;56,9;24,0;18,4;0,7;57;98,9;98,6;48.860238;2.37214
5861;MK2 BASTILLE COTE BEAUMARCHAIS;ILE-DE-FRANCE;3 BD R LENOIR 4/6 BD BEAUMARCHAI;75111;Paris 11e Arrondissement;146735;75;00851;Paris;10909327;01-Paris;4;469;32;5 324;121 331;94 158;28,9;De 100 à 150 000 entrées;MK2 CINEMAS;Karmitz;OUI;A;RDJP;FIXE;NON;C;77;61;38;58,4;23,5;16,6;1,4;50;76,5;69,4;48.854674;2.369381
6212;MK2 NATION;ILE-DE-FRANCE;133 BOULEVARD DIDEROT;75112;Paris 12e Arrondissement;140605;75;00851;Paris;10909327;01-Paris;8;557;32;9 123;195 764;131 257;49,1;De 150 à 200 000 entrées;MK2 CINEMAS;MK2 (Karmitz);NON;NON;;FIXE;OUI;C;108;74;62;67,7;18,4;13,5;0,4;46;57,7;56,2;48.848213;2.39311
6531;UGC LYON BASTILLE;ILE-DE-FRANCE;12 RUE DE LYON;75112;Paris 12e Arrondissement;140605;75;00851;Paris;10909327;01-Paris;7;1273;32;7 285;136 006;84 853;60,3;De 100 à 150 000 entrées;UGC SAS;UGC;NON;NON;;FIXE;NON;C;119;90;87;40,3;42,7;16,3;0,7;18;16,4;13,9;48.847502;2.371855
6611;UGC CINE CITE BERCY;ILE-DE-FRANCE;2 COUR SAINT-EMILION;75112;Paris 12e Arrondissement;140605;75;00851;Paris;10909327;01-Paris;18;4480;32;22 425;681 518;496 865;37,2;De 450 à 700 000 entrées;UGC CINE CITE ILE DE FRANCE;UGC;NON;NON;;FIXE;OUI;C;244;205;207;34,9;48,4;15,2;1,5;94;35,9;24,9;48.833595;2.38604
7231;CHAPLIN SAINT LAMBERT;ILE-DE-FRANCE;6 RUE PECLET;75115;Paris 15e Arrondissement;233855;75;00851;Paris;10909327;01-Paris;3;363;32;3 542;41 308;38 484;7,3;De 40 à 50 000 entrées;CINEMA CHAPLIN;;OUI;A;JP;FIXE;NON;C;248;157;2;61,5;21,3;11,0;6,2;111;63,2;58,5;48.843204;2.298558
7394;GAUMONT CONVENTION;ILE-DE-FRANCE;27 RUE ALAIN CHARTIER;75115;Paris 15e Arrondissement;233855;75;00851;Paris;10909327;01-Paris;9;1263;32;9 830;245 633;174 210;41,0;De 200 à 300 000 entrées;GAUMONT;PATHE GAUMONT;NON;NON;;FIXE;OUI;C;149;135;117;57,7;24,0;14,6;3,8;81;56,1;46,0;48.837759;2.296259
7491;GAUMONT AQUABOULEVARD;ILE-DE-FRANCE;8/16 RUE DU COLONEL PIERRE AVIA;75115;Paris 15e Arrondissement;233855;75;00851;Paris;10909327;01-Paris;14;2583;13;4 094;73 673;197 201;-62,6;De 50 à 80 000 entrées;GAUMONT;PATHE GAUMONT;NON;NON;;FIXE;OUI;C;99;85;61;22,7;57,7;15,1;4,5;20;19,9;9,8;48.830408;2.276322
7711;GAUMONT MONTPARNOS;ILE-DE-FRANCE;16 18 RUE D ODESSA;75114;Paris 14e Arrondissement;137574;75;00851;Paris;10909327;01-Paris;4;397;32;4 525;84 252;56 355;49,5;De 80 à 100 000 entrées;CINEMAS RYTMANN SAS;PATHE GAUMONT;NON;NON;;FIXE;NON;C;107;101;34;71,3;14,3;10,1;4,3;65;75,4;68,3;48.841914;2.324596
8132;GAUMONT ALESIA;ILE-DE-FRANCE;73 AVENUE DU GENERAL LECLERC;75114;Paris 14e Arrondissement;137574;75;00851;Paris;10909327;01-Paris;8;1384;32;8 726;236 317;164 857;43,3;De 200 à 300 000 entrées;GAUMONT;PATHE GAUMONT;NON;NON;;FIXE;OUI;C;143;128;94;39,7;43,2;16,3;0,8;53;25,0;22,9;48.828166;2.327463
8161; CHAPLIN DENFERT;ILE-DE-FRANCE;24 PLACE DENFERT ROCHEREAU;75114;Paris 14e Arrondissement;137574;75;00851;Paris;10909327;01-Paris;1;133;32;1 208;17 940;14 844;20,9;De 10 à 20 000 entrées;SOCIETE D'EXPLOITATION DU THEATRE DENFERT ROCHEREAU;;OUI;A;JP;FIXE;NON;C;127;80;0;72,4;19,6;4,7;3,4;52;64,5;61,9;48.833879;2.330976
8291;L ARLEQUIN PANORAMA;ILE-DE-FRANCE;76 RUE DE RENNES;75106;Paris 6e Arrondissement;41384;75;00851;Paris;10909327;01-Paris;3;591;32;3 162;56 442;49 941;13,0;De 50 à 80 000 entrées;DULAC CINEMAS;;OUI;A;RDPR;FIXE;NON;C;158;60;47;55,3;12,8;19,1;12,8;46;91,0;90,4;48.851278;2.330648
8331;UGC DANTON;ILE-DE-FRANCE;99 BD ST GERMAIN;75106;Paris 6e Arrondissement;41384;75;00851;Paris;10909327;01-Paris;4;684;32;4 756;99 447;70 774;40,5;De 80 à 100 000 entrées;UGC SAS;UGC;NON;NON;;FIXE;NON;C;62;58;40;59,6;19,6;18,7;2,1;37;57,0;51,8;48.852138;2.338995
8341;NOUVEL ODEON;ILE-DE-FRANCE;6 RUE DE L ECOLE DE MEDECINE;75106;Paris 6e Arrondissement;41384;75;00851;Paris;10909327;01-Paris;1;119;32;894;18 313;14 474;26,5;De 10 à 20 000 entrées;CINEDEVIL;EXANTHUS (Bidou);OUI;A;RDJP;FIXE;NON;C;84;28;0;44,1;11,8;14,8;29,3;28;100,0;100,0;48.850764;2.341747
8353;UGC ODEON;ILE-DE-FRANCE;124 BD ST GERMAIN;75106;Paris 6e Arrondissement;41384;75;00851;Paris;10909327;01-Paris;5;722;32;6 173;107 689;85 435;26,0;De 100 à 150 000 entrées;UGC SAS;UGC;NON;NON;;FIXE;NON;C;110;85;67;63,0;21,0;11,9;4,0;59;72,2;64,4;48.852353;2.339834
8361;ESPACE SAINT MICHEL;ILE-DE-FRANCE;7 PLACE ST MICHEL;75105;Paris 5e Arrondissement;59050;75;00851;Paris;10909327;01-Paris;2;210;31;2 509;19 574;20 163;-2,9;De 10 à 20 000 entrées;SOCIETE DE DIFFUSION AUDIOVISUELLE;;OUI;A;RD;FIXE;NON;C;40;30;28;54,1;4,9;19,7;21,3;23;79,2;81,0;48.853093;2.344228
8374;ECOLES CINEMA CLUB;ILE-DE-FRANCE;23 RUE DES ECOLES;75105;Paris 5e Arrondissement;59050;75;00851;Paris;10909327;01-Paris;2;200;32;2 015;28 419;28 076;1,2;De 20 à 30 000 entrées;CINELUX;;OUI;A;PR;FIXE;NON;C;267;8;1;5,5;94,0;0,0;0,5;7;10,3;10,0;48.848384;2.348973
8391;LE CINEMA DU PANTHEON;ILE-DE-FRANCE;13 RUE VICTOR COUSIN;75105;Paris 5e Arrondissement;59050;75;00851;Paris;10909327;01-Paris;1;200;32;1 061;7 675;17 171;-55,3;De 5 à 10 000 entrées;LES FILMS DE LA GARENNE;;OUI;A;RD;FIXE;NON;C;30;12;5;98,3;0,0;1,7;0,0;12;100,0;100,0;48.847502;2.342301
8422;LE CHAMPO;ILE-DE-FRANCE;51 RUE DES ECOLES;75105;Paris 5e Arrondissement;59050;75;00851;Paris;10909327;01-Paris;2;240;32;2 391;50 555;41 281;22,5;De 50 à 80 000 entrées;SOCIETE D'EXPLOITATION DU CHAMPOLLION STUDIO DES ECOLES;;OUI;A;PR;FIXE;NON;C;135;6;3;6,1;0,0;54,7;39,2;6;100,0;100,0;48.849983;2.343211
8425;QUARTIER LATIN I;ILE-DE-FRANCE;9 RUE CHAMPOLLION;75105;Paris 5e Arrondissement;59050;75;00851;Paris;10909327;01-Paris;2;164;32;2 024;53 849;55 838;-3,6;De 50 à 80 000 entrées;CINE SORBONNE;;OUI;A;PR;FIXE;NON;C;292;1;0;100,0;0,0;0,0;0,0;1;100,0;100,0;48.849504;2.342788
8451;STUDIO DES URSULINES;ILE-DE-FRANCE;10 RUE DES URSULINES;75105;Paris 5e Arrondissement;59050;75;00851;Paris;10909327;01-Paris;1;122;32;665;14 314;11 615;23,2;De 10 à 20 000 entrées;SARL DES AUTEURS REALISATEURS PRODUCTEURS ARP;;OUI;A;JPPR;FIXE;NON;C;82;10;5;16,9;2,7;75,0;5,4;7;85,0;74,7;48.842733;2.342044
8513;REFLET MEDICIS 2;ILE-DE-FRANCE;7 RUE CHAMPOLLION;75105;Paris 5e Arrondissement;59050;75;00851;Paris;10909327;01-Paris;3;339;32;3 260;48 873;47 300;3,3;De 40 à 50 000 entrées;DULAC CINEMAS;;OUI;A;RDPR;FIXE;NON;C;186;36;23;52,8;9,5;15,8;22,0;36;100,0;100,0;48.849591;2.342836
8514;EPEE DE BOIS;ILE-DE-FRANCE;100 RUE MOUFFETARD;75105;Paris 5e Arrondissement;59050;75;00851;Paris;10909327;01-Paris;2;140;32;2 140;23 338;19 746;18,2;De 20 à 30 000 entrées;STUDIO 43;;OUI;A;;FIXE;NON;C;120;73;5;74,2;10,8;8,9;6,1;50;75,4;71,2;48.841535;2.34958
8531;LE GRAND ACTION;ILE-DE-FRANCE;5 RUE DES ECOLES;75105;Paris 5e Arrondissement;59050;75;00851;Paris;10909327;01-Paris;2;336;25;1 321;27 606;25 325;9,0;De 20 à 30 000 entrées;ACTION RIVE GAUCHE;;OUI;A;PR;FIXE;NON;C;147;11;6;10,1;89,9;0,0;0,0;9;92,0;95,0;48.847537;2.352122
8621;LES FAUVETTES;ILE-DE-FRANCE;58 AVENUE DES GOBELINS;75113;Paris 13e Arrondissement;181859;75;00851;Paris;10909327;01-Paris;5;645;32;5 630;75 716;55 439;36,6;De 50 à 80 000 entrées;GAUMONT;PATHE GAUMONT;NON;NON;;FIXE;NON;C;90;75;60;48,5;35,5;15,3;0,7;30;40,8;37,9;48.833574;2.353775
8632;UGC  GOBELINS;ILE-DE-FRANCE;66 BIS AV DES GOBELINS;75113;Paris 13e Arrondissement;181859;75;00851;Paris;10909327;01-Paris;11;1169;32;12 538;224 585;170 162;32,0;De 200 à 300 000 entrées;UGC SAS;UGC;NON;NON;;FIXE;OUI;C;222;159;141;53,7;30,3;13,4;2,6;89;53,5;49,2;48.832888;2.354241
8661;ESCURIAL;ILE-DE-FRANCE;11 BD PORT ROYAL;75113;Paris 13e Arrondissement;181859;75;00851;Paris;10909327;01-Paris;2;329;32;2 281;38 331;30 666;25,0;De 30 à 40 000 entrées;DULAC CINEMAS;;OUI;A;RDJP;FIXE;NON;C;109;64;37;70,0;0,3;10,3;19,3;62;98,5;99,4;48.836817;2.349632
9452;LE LOUXOR;ILE-DE-FRANCE;170 BOULEVARD DE MAGENTA;75110;Paris 10e Arrondissement;88971;75;00851;Paris;10909327;01-Paris;3;556;32;3 495;109 882;92 428;18,9;De 100 à 150 000 entrées;CINELOUXOR                                                      ;EXANTHUS (Bidou);OUI;A;RDJPPR;FIXE;NON;C;156;57;36;62,6;19,3;9,2;8,8;54;99,6;99,1;48.883487;2.349853
9600;MK2 BIBLIOTHEQUE;ILE-DE-FRANCE;128 A 162 AVENUE DE FRANCE;75113;Paris 13e Arrondissement;181859;75;00851;Paris;10909327;01-Paris;16;2952;33;22 470;593 144;428 669;38,4;De 450 à 700 000 entrées;MK2 TOLBIAC                                                     ;MK2 (Karmitz);NON;NON;;FIXE;OUI;C;280;222;212;31,4;51,0;13,0;4,7;106;36,6;32,2;48.833718;2.373922
9616;MK2 A&E;ILE-DE-FRANCE;15/43 QUAI FRANCOIS MAURIAC;75113;Paris 13e Arrondissement;181859;75;00851;Paris;10909327;01-Paris;4;520;32;5 891;67 946;41 420;64,0;De 50 à 80 000 entrées;MK2 A & E                                                       ;Karmitz;NON;NON;;FIXE;NON;C;145;117;44;55,4;20,5;9,9;14,1;91;82,9;76,1;48.832993;2.378615
9700;PATHE BEAUGRENELLE;ILE-DE-FRANCE;7 RUE LINOIS;75115;Paris 15e Arrondissement;233855;75;00851;Paris;10909327;01-Paris;10;1962;32;11 456;421 618;261 343;61,3;De 300 à 450 000 entrées;PATHE BEAUGRENNELLE                                             ;PATHE GAUMONT;NON;NON;;FIXE;OUI;C;122;112;102;33,8;47,9;17,5;0,8;34;23,7;19,8;48.848895;2.282585
9802;CLUB DE L ETOILE;ILE-DE-FRANCE;14 RUE TROYON;75117;Paris 17e Arrondissement;167284;75;00851;Paris;10909327;01-Paris;1;161;18;52;2 974;2 392;24,3;De 2 à 5 000 entrées;SOCIETE CINEMATOGRAPHIQUE THEATRALE ET AUDIOVISUELLE CTAV 14;;NON;NON;;FIXE;NON;C;43;8;2;39,7;21,4;38,9;0,0;4;36,4;24,5;48.876113;2.295345
9803;LES 7 BATIGNOLLES CINEMOVIDA;ILE-DE-FRANCE;ALLEE COLETTE HEILBRONNER;75117;Paris 17e Arrondissement;167284;75;00851;Paris;10909327;01-Paris;7;1151;32;7 466;93 497;51 795;80,5;De 80 à 100 000 entrées;LES 7 BATIGNOLLES;PATHE GAUMONT;NON;NON;;FIXE;NON;C;170;97;80;39,2;40,9;18,5;1,4;45;36,6;32,7;48.893315;2.311503
9900;MK2 QUAI DE LOIRE;ILE-DE-FRANCE;5/19 QUAI DE LA LOIRE;75119;Paris 19e Arrondissement;186530;75;00851;Paris;10909327;01-Paris;6;1108;32;7 466;239 081;173 285;38,0;De 200 à 300 000 entrées;MK2 QUAI DE LOIRE                                               ;MK2 (Karmitz);NON;NON;;FIXE;NON;C;133;93;62;44,6;37,8;16,5;1,1;46;41,3;46,1;48.885067;2.374123
9906;UGC CINE CITE PARIS 19;ILE-DE-FRANCE;166 BOULEVARD MAC DONALD;75119;Paris 19e Arrondissement;186530;75;00851;Paris;10909327;01-Paris;14;2790;32;15 009;204 005;177 666;14,8;De 200 à 300 000 entrées;UGC CINE CITE;UGC;NON;NON;;FIXE;OUI;C;232;194;173;35,9;49,3;13,4;1,4;82;31,8;24,5;48.898991;2.376757
9920;PATHE;ILE-DE-FRANCE;30 AVENUE CORENTIN CARIOU;75119;Paris 19e Arrondissement;186530;75;00851;Paris;10909327;01-Paris;16;2901;32;14 828;282 502;187 681;50,5;De 200 à 300 000 entrées;PATHE LA VILLETTE;PATHE GAUMONT;NON;NON;;FIXE;OUI;C;205;168;141;13,9;66,3;16,8;3,0;58;12,7;9,3;48.897016;2.385181
9950;CGR PARIS LILAS;ILE-DE-FRANCE;PLACE DU MAQUIS DU VERCORS;75120;Paris 20e Arrondissement;196530;75;00851;Paris;10909327;01-Paris;7;1394;32;8 309;134 186;82 424;62,8;De 100 à 150 000 entrées;CINELILAS                                                       ;LES FILMS DE LA ROCHELLE;NON;NON;;FIXE;NON;C;120;88;91;21,4;61,8;11,9;4,9;8;7,0;5,6;48.852605;2.406733
10552;SALLE CHARLES CHAPLIN;ILE-DE-FRANCE;ESPACE CULTUREL ALAIN POHER 7 AVENUE AUGUSTE DURU;94001;Ablon-sur-Seine;5845;94;00851;Paris;10909327;02-Petite Couronne;1;209;9;28;1 033;514;101,0;Moins de 2000 entrées;LES BORDS DE SCENES;;NON;NON;;FIXE;NON;B;25;23;0;46,3;49,7;4,0;0,0;10;42,3;11,1;48.724181;2.420302
10992;PANDORA;ILE-DE-FRANCE;6 ALLEE SIMONE SIGNORET;78005;Achères;21252;78;00851;Paris;10909327;03-Grande couronne;3;257;29;2 686;37 686;30 614;23,1;De 30 à 40 000 entrées;CINE ACHERES PANDORA;;OUI;C;RDJP;FIXE;NON;B;147;112;47;67,1;14,2;14,5;4,2;88;81,4;74,1;48.960956;2.067774
14693;! POC ! SCENE ARTISTIQUE ALFORTVILLE;ILE-DE-FRANCE;82 RUE MARCEL BOURDARIAS;94002;Alfortville;44446;94;00851;Paris;10909327;02-Petite Couronne;1;410;18;41;3 238;2 815;15,0;De 2 à 5 000 entrées;COMMUNE d'ALFORVILLE;;NON;NON;;FIXE;NON;B;39;35;1;77,2;13,2;9,5;0,0;19;52,8;41,9;48.807586;2.422346
20931;LE SELECT;ILE-DE-FRANCE;10 AV DIVISION LECLERC;92002;Antony;63674;92;00851;Paris;10909327;02-Petite Couronne;4;665;28;3 614;103 115;85 492;20,6;De 100 à 150 000 entrées;CENTRE CULTUREL MUNICIPAL D'ANTONY;;OUI;C;RDJPPR;FIXE;NON;B;226;185;126;64,6;18,6;14,1;2,8;145;79,2;65,7;48.753029;2.304782
22634;JEAN VILAR;ILE-DE-FRANCE;1 RUE PAUL SIGNAC;94003;Arcueil;21845;94;00851;Paris;10909327;02-Petite Couronne;2;328;32;1 326;12 412;12 942;-4,1;De 10 à 20 000 entrées;COMMUNE D ARCUEIL;;OUI;C;RDJPPR;FIXE;NON;B;204;142;5;63,9;14,0;15,9;6,2;114;84,6;78,3;48.801352;2.330702
22636;MEGARAMA;ILE-DE-FRANCE;8 AVENUE SALVADOR ALLENDE;94003;Arcueil;21845;94;00851;Paris;10909327;02-Petite Couronne;6;781;32;5 912;102 911;68 669;49,9;De 100 à 150 000 entrées;CINEARCUEIL                                                     ;AGORA;NON;NON;;FIXE;NON;B;99;89;83;20,7;62,7;14,3;2,3;8;5,9;4,5;48.810228;2.328168
23301;JEAN GABIN;ILE-DE-FRANCE;12-14 BOULEVARD LEON FEIX;95018;Argenteuil;110766;95;00851;Paris;10909327;03-Grande couronne;1;128;27;459;4 030;4 116;-2,1;De 2 à 5 000 entrées;COMMUNAUTE D AGGLOMERATION ARGENTEUIL BEZONS;;OUI;C;RDJP;FIXE;NON;B;79;56;0;41,1;33,6;16,7;8,6;44;78,7;64,8;48.946909;2.249331
23323;LE FIGUIER BLANC;ILE-DE-FRANCE;3TER RUE GREGOIRE COLLAS;95018;Argenteuil;110766;95;00851;Paris;10909327;03-Grande couronne;3;826;32;2 158;29 559;23 428;26,2;De 20 à 30 000 entrées;COMMUNAUTE D AGGLOMERATION ARGENTEUIL BEZONS;;OUI;C;RDJPPR;FIXE;NON;B;161;138;32;38,3;41,0;16,4;4,4;75;42,1;32,8;48.943679;2.24855
26662;L ALCAZAR;ILE-DE-FRANCE;1 RUE DE LA STATION;92004;Asnières-sur-Seine;86605;92;00851;Paris;10909327;02-Petite Couronne;4;646;32;4 728;86 580;60 803;42,4;De 80 à 100 000 entrées;CINEZEPHYR ASNIERES;;OUI;C;JPPR;FIXE;NON;B;132;103;97;49,7;34,4;14,9;1,0;63;45,8;33,5;48.906327;2.284046
27573;CINEMA VENTURA;ILE-DE-FRANCE;RUE SAMUEL DESBORDES;91027;Athis-Mons;35448;91;00851;Paris;10909327;03-Grande couronne;1;175;28;333;4 543;3 600;26,2;De 2 à 5 000 entrées;LE CENTRE CULTUREL DES PORTES DE L  ESSONNE;;OUI;C;;FIXE;NON;B;114;92;0;58,0;25,0;16,4;0,6;51;53,5;33,8;48.7102;2.388137
28264;STUDIO;ILE-DE-FRANCE;2 RUE EDOUARD POISSON;93001;Aubervilliers;87762;93;00851;Paris;10909327;02-Petite Couronne;1;127;32;699;13 653;12 932;5,6;De 10 à 20 000 entrées;ASSOCIATION CINEMA LE STUDIO;;OUI;C;JPPR;FIXE;NON;B;173;116;6;51,0;25,6;16,7;6,7;84;68,3;56,8;48.910534;2.384966
30164;THEATRE ET CINEMA JACQUES PREVERT;ILE-DE-FRANCE;134 RUE ANATOLE FRANCE;93005;Aulnay-sous-Bois;86683;93;00851;Paris;10909327;02-Petite Couronne;2;789;27;726;11 153;11 295;-1,3;De 10 à 20 000 entrées;INSTITUT AULNAYSIEN DE DEVELOPPEMENT CULTUREL;GPCI (Vintrou);OUI;C;JP;FIXE;NON;B;176;152;6;62,5;18,6;16,0;2,8;97;59,9;44,9;48.940586;2.496291
30184;UGC CINE CITE O'PARINOR;ILE-DE-FRANCE;LE HAUT DE GALY;93005;Aulnay-sous-Bois;86683;93;00851;Paris;10909327;02-Petite Couronne;14;2590;32;15 790;312 659;273 569;14,3;De 300 à 450 000 entrées;UGC CINE CITE;UGC;NON;NON;;FIXE;OUI;B;195;133;132;17,1;66,1;15,5;1,3;22;8,6;2,9;48.960325;2.473606
35953;THEATRE VICTOR HUGO;ILE-DE-FRANCE;14 AV VICTOR HUGO;92007;Bagneux;40946;92;00851;Paris;10909327;02-Petite Couronne;1;418;17;68;3 097;4 348;-28,8;De 2 à 5 000 entrées;COMMUNE DE BAGNEUX;;NON;NON;;FIXE;NON;B;24;14;0;26,9;73,1;0,0;0,0;5;26,3;12,6;48.804045;2.321692
36013;LE CIN'HOCHE;ILE-DE-FRANCE;6 RUE HOCHE;93006;Bagnolet;35546;93;00851;Paris;10909327;02-Petite Couronne;2;288;28;1 135;17 239;14 047;22,7;De 10 à 20 000 entrées;ASSOCIATION BAGNOLETAISE DU CINEMA;;OUI;C;RDJPPR;FIXE;NON;B;155;109;9;70,5;19,2;6,3;4,0;86;82,0;75,8;48.869237;2.417029
37350;CINE TOILE;ILE-DE-FRANCE;2 RUE DES COLOMBES;91045;Ballancourt-sur-Essonne;7695;91;91402;Ballancourt-sur-Essonne;35634;03-Grande couronne;1;189;29;288;5 624;4 258;32,1;De 5 à 10 000 entrées;VILLE DE BALLANCOURT SUR ESSONNE                                ;;NON;NON;;FIXE;NON;C;61;50;35;47,9;44,2;7,9;0,0;7;7,3;5,8;48.528643;2.388787
45132;BEAUMONT PALACE;ILE-DE-FRANCE;6 AV ANATOLE FRANCE;95052;Beaumont-sur-Oise;9660;95;00459;Persan - Beaumont-sur-Oise;38645;03-Grande couronne;1;353;32;612;11 229;6 642;69,1;De 10 à 20 000 entrées;COMMUNE DE BEAUMONT SUR OISE;GPCI (Vintrou);OUI;D;JPPR;FIXE;NON;C;157;122;0;50,9;17,0;27,3;4,8;61;48,5;54,6;49.141412;2.283076
54292;LA BARBACANE;ILE-DE-FRANCE;PLACE DU 8 MAI 1945;78062;Beynes;7763;78;78205;Beynes;8284;03-Grande couronne;1;292;24;249;5 420;3 950;37,2;De 5 à 10 000 entrées;SYNDICAT INTERCOMMUNAL DE GESTION DES ACTIVITES DU CENTRE CULTUR;GPCI (Vintrou);NON;NON;;FIXE;NON;C;80;68;0;58,4;33,0;8,7;0,0;33;47,9;33,2;48.855732;1.875104
54692;THEATRE PAUL ELUARD;ILE-DE-FRANCE;162 RUE MAURICE BERTEAUX;95063;Bezons;30608;95;00851;Paris;10909327;03-Grande couronne;2;598;32;880;14 373;9 537;50,7;De 10 à 20 000 entrées;THEATRE PAUL ELUARD;GPCI (Vintrou);OUI;C;JP;FIXE;NON;B;159;128;9;35,9;50,3;13,2;0,6;56;34,5;19,9;48.931156;2.207081
57582;CINEMA LOUIS DAQUIN;ILE-DE-FRANCE;76 RUE VICTOR HUGO;93007;Le Blanc-Mesnil;57317;93;00851;Paris;10909327;02-Petite Couronne;3;447;32;1 992;29 623;23 861;24,1;De 20 à 30 000 entrées;COMMUNE DE BLANC MESNIL;;OUI;C;JPPR;FIXE;NON;B;163;136;24;49,7;38,4;10,0;2,0;67;33,7;20,2;48.941761;2.457313
59033;AUDITORIUM BOURSE TRAVAIL;ILE-DE-FRANCE;11 RUE DU 8 MAI 1945;93008;Bobigny;54436;93;00851;Paris;10909327;02-Petite Couronne;1;400;19;294;5 211;4 922;5,9;De 5 à 10 000 entrées;EST ENSEMBLE;;OUI;E;;ITINERANT;NON;B;68;50;1;28,4;51,2;20,0;0,4;33;65,2;33,4;48.909510;2.436542
59604;JEAN RENOIR;ILE-DE-FRANCE;RUE DU GENERAL LECLERC;92009;Bois-Colombes;28706;92;00851;Paris;10909327;02-Petite Couronne;1;300;25;203;6 517;8 031;-18,9;De 5 à 10 000 entrées;COMMUNE DE BOIS COLOMBES;;NON;NON;;FIXE;NON;B;54;33;0;71,6;14,7;12,4;1,3;11;36,2;32,7;48.916548;2.266897
59690;LA GRANGE DE LA TREMBLAYE;ILE-DE-FRANCE;RUE DU PARC;78073;Bois-d'Arcy;15366;78;00851;Paris;10909327;03-Grande couronne;1;338;20;305;4 607;4 186;10,1;De 2 à 5 000 entrées;COMMUNE DE BOIS D'ARCY;;NON;NON;;FIXE;NON;B;86;82;0;54,0;37,7;7,6;0,7;34;38,2;17,9;48.800013;2.023763
60942;LE FORUM;ILE-DE-FRANCE;PLACE DU FORUM;94004;Boissy-Saint-Léger;16541;94;00851;Paris;10909327;02-Petite Couronne;1;114;26;96;2 036;1 951;4,4;De 2 à 5 000 entrées;COMMUNE DE BOISSY SAINT LEGER;;NON;NON;;FIXE;NON;B;63;44;0;45,3;21,7;32,5;0,4;22;47,2;38,3;48.754035;2.502015
61504;SALLE ANDRE MALRAUX;ILE-DE-FRANCE;25 COURS DE LA REPUBLIQUE;93010;Bondy;54207;93;00851;Paris;10909327;02-Petite Couronne;1;324;32;854;18 071;12 659;42,8;De 10 à 20 000 entrées;COMMUNE DE BONDY;;OUI;C;JP;FIXE;NON;B;150;109;4;35,1;49,4;13,1;2,4;59;52,3;33,9;48.901598;2.480089
62121;GERARD PHILIPE;ILE-DE-FRANCE;2 RUE PABLO NERUDA;94011;Bonneuil-sur-Marne;18117;94;00851;Paris;10909327;02-Petite Couronne;1;245;19;185;3 070;4 130;-25,7;De 2 à 5 000 entrées;COMMUNE DE BONNEUIL SUR MARNE;;NON;NON;;FIXE;NON;B;50;45;0;54,7;28,5;16,8;0,0;18;41,5;25,8;48.774577;2.486664
66835;CINEMA LANDOWSKI;ILE-DE-FRANCE;28 AVENUE ANDRE-MORIZET;92012;Boulogne-Billancourt;122577;92;00851;Paris;10909327;02-Petite Couronne;1;154;32;1 068;23 607;22 897;3,1;De 20 à 30 000 entrées;COMMUNE DE BOULOGNE-BILLANCOURT;;OUI;C;RDJPPR;FIXE;NON;B;120;85;75;54,6;9,2;20,7;15,4;81;97,8;97,9;48.83591;2.239289
66923;PATHE;ILE-DE-FRANCE;26 RUE LE CORBUSIER;92012;Boulogne-Billancourt;122577;92;00851;Paris;10909327;02-Petite Couronne;7;1492;32;6 453;280 883;180 567;55,6;De 200 à 300 000 entrées;EUROPALACES NICE BOULOGNE;PATHE GAUMONT;NON;NON;;FIXE;NON;B;113;101;95;45,9;37,7;15,6;0,7;40;31,6;24,9;48.837649;2.239534
68114;LE CINEMA;ILE-DE-FRANCE;10 AVENUE FRANCIS DE PRESSENSE;93013;Le Bourget;16183;93;00851;Paris;10909327;02-Petite Couronne;1;83;7;163;863;1 974;-56,3;Moins de 2000 entrées;COMMUNE DU BOURGET;GPCI (Vintrou);NON;NON;;FIXE;NON;B;30;28;0;49,6;37,1;13,3;0,0;7;27,3;15,2;48.932361;2.424858
68212;AUDITORIUM DU CONSERVATOIRE;ILE-DE-FRANCE;11 BD CARNOT;92014;Bourg-la-Reine;21120;92;00851;Paris;10909327;02-Petite Couronne;1;177;9;13;383;235;63,0;Moins de 2000 entrées;LES GEMEAUX SCENE NATIONALE;;NON;NON;;FIXE;NON;B;13;6;0;59,0;20,3;20,8;0,0;2;33,3;40,6;48.778884;2.317531
69641;BUXY;ILE-DE-FRANCE;CENTRE COMMERCIAL VAL D'YERRES 2;91097;Boussy-Saint-Antoine;7840;91;00851;Paris;10909327;03-Grande couronne;5;797;32;4 172;39 463;29 093;35,6;De 30 à 40 000 entrées;ASSOCIATION DES CINEMAS INDEPENDANTS                            ;GPCI (Vintrou);OUI;C;;FIXE;NON;B;132;117;84;42,6;47,0;10,0;0,4;42;24,3;14,5;48.683571;2.535014
71901;LE RENAISSANCE;ILE-DE-FRANCE;16 RUE DE L EGLISE;77051;Bray-sur-Seine;2294;77;77116;Bray-sur-Seine;3333;03-Grande couronne;1;105;29;187;2 511;1 226;104,8;De 2 à 5 000 entrées;LEMOINE DENISE;;OUI;E;;FIXE;NON;C;84;73;0;65,8;27,0;6,5;0,7;32;40,1;22,7;48.415251;3.237856
73423;JEAN COCTEAU;ILE-DE-FRANCE;3 RUE ANATOLE FRANCE;91103;Brétigny-sur-Orge;27193;91;00851;Paris;10909327;03-Grande couronne;2;368;32;1 546;19 783;15 946;24,1;De 10 à 20 000 entrées;ASSOCIATION CINE 220;MICROMEGAS (Clochard);OUI;C;RDJPPR;FIXE;NON;B;184;140;19;46,6;35,8;16,4;1,3;83;48,0;37,3;48.608596;2.303919
74662;LES 4 VENTS;ILE-DE-FRANCE;80 RUE DU GENERAL LECLERC;77053;Brie-Comte-Robert;18550;77;77306;Brie-Comte-Robert;18550;03-Grande couronne;1;168;31;576;10 261;9 636;6,5;De 10 à 20 000 entrées;VILLE DE BRIE-COMTE-ROBERT                                      ;;OUI;E;RDJP;FIXE;NON;I;154;128;1;62,8;23,4;12,2;1,5;72;52,2;37,3;48.696652;2.607228
81101;LA PLEIADE;ILE-DE-FRANCE;12 AVENUE COUSIN DE MERICOURT;94016;Cachan;31248;94;00851;Paris;10909327;02-Petite Couronne;3;802;29;2 253;29 589;22 063;34,1;De 20 à 30 000 entrées;ASSOCIATION CENTRE CULTUREL COMMUNAL CACHAN;GPCI (Vintrou);OUI;C;JP;FIXE;NON;B;171;138;57;54,5;33,4;11,3;0,8;89;50,9;41,6;48.795796;2.335316
91492;CINEMA DU THEATRE;ILE-DE-FRANCE;8 AVENUE CHARLES DE GAULLE;78126;La Celle-Saint-Cloud;21237;78;00851;Paris;10909327;03-Grande couronne;1;319;25;112;3 757;4 110;-8,6;De 2 à 5 000 entrées;COMMUNE DE LA CELLE SAINT CLOUD;;NON;NON;;FIXE;NON;B;108;81;0;74,8;14,8;7,7;2,7;47;57,1;50,0;48.847416;2.136047
92329;UGC CINE CITE;ILE-DE-FRANCE;8 PLACE DES 3 GARES;95127;Cergy;66838;95;00851;Paris;10909327;03-Grande couronne;14;2788;32;13 295;187 148;142 257;31,6;De 150 à 200 000 entrées;UGC CINE CITE;UGC;NON;NON;;FIXE;OUI;B;197;161;161;26,3;56,4;15,4;1,8;49;19,9;10,1;49.048453;2.010977
96533;JEAN GABIN;ILE-DE-FRANCE;RUE PIERRE DE COUBERTIN;77079;Champagne-sur-Seine;6433;77;77404;Champagne-sur-Seine;28623;03-Grande couronne;1;168;29;217;2 804;2 270;23,5;De 2 à 5 000 entrées;CINE MONTEREAU POINT COM;;OUI;D;;FIXE;NON;C;77;59;0;59,6;21,9;17,7;0,8;32;50,3;44,7;48.398755;2.80515
97431;STUDIO 66;ILE-DE-FRANCE;66 RUE JEAN JAURES;94017;Champigny-sur-Marne;77381;94;00851;Paris;10909327;02-Petite Couronne;5;944;32;4 887;64 401;45 798;40,6;De 50 à 80 000 entrées;STUDIO 66;AGORA;OUI;C;JP;FIXE;NON;B;160;130;78;20,8;63,1;13,0;3,1;51;11,6;7,9;48.814397;2.508133
105652;REX;ILE-DE-FRANCE;364 AVE DE LA DIVISION LECLERC;92019;Châtenay-Malabry;34527;92;00851;Paris;10909327;02-Petite Couronne;2;551;28;1 461;24 420;18 879;29,4;De 20 à 30 000 entrées;ASSOCIATION CHATENAY ACTION CULTURE;;OUI;C;RDJPPR;FIXE;NON;B;135;103;51;49,9;30,0;19,3;0,8;69;64,7;47,1;48.765842;2.259825
106262;LOUIS JOUVET;ILE-DE-FRANCE;3 PLACE MAURICE BERTEAUX;78146;Chatou;30850;78;00851;Paris;10909327;03-Grande couronne;2;459;30;1 266;28 945;24 968;15,9;De 20 à 30 000 entrées;ANIM ACTION;UGC;NON;NON;;FIXE;NON;B;158;124;31;58,6;23,7;16,3;1,4;71;49,9;38,3;48.886917;2.156299
108192;ATRIUM;ILE-DE-FRANCE;3 PARVIS ROBERT SCHUMAN;92022;Chaville;21012;92;00851;Paris;10909327;02-Petite Couronne;1;643;26;220;6 365;6 937;-8,2;De 5 à 10 000 entrées;REGIE CULTURELLE ATRIUM DE CHAVILLE;GPCI (Vintrou);NON;NON;;FIXE;NON;B;100;80;0;54,9;25,4;17,5;2,2;31;34,0;30,2;48.813094;2.192579
108774;COSMOS;ILE-DE-FRANCE;22 AV DE LA RESISTANCE;77108;Chelles;55441;77;00851;Paris;10909327;03-Grande couronne;2;645;31;2 046;36 307;22 477;61,5;De 30 à 40 000 entrées;STUDIO 43;;OUI;C;JP;FIXE;NON;B;141;106;24;32,8;53,3;11,4;2,5;47;21,5;14,3;48.877872;2.586341
110351;GAUMONT DISNEY VILLAGE;ILE-DE-FRANCE;1 ESPLANADE FRANCOIS TRUFFAUT;77111;Chessy;6020;77;00851;Paris;10909327;03-Grande couronne;15;3923;32;15 376;418 659;233 168;79,6;De 300 à 450 000 entrées;GAUMONT;PATHE GAUMONT;NON;NON;;FIXE;OUI;B;158;134;135;18,0;66,2;14,4;1,3;20;8,2;4,9;48.880488;2.772675
110372;STUDIO 31;ILE-DE-FRANCE;31 PLACE D'ARIANE;77111;Chessy;6020;77;00851;Paris;10909327;03-Grande couronne;2;216;32;2 330;28 970;16 327;77,4;De 20 à 30 000 entrées;LE CINEMA DE CHESSY;GPCI (Vintrou);OUI;C;;FIXE;NON;B;131;104;29;14,8;72,5;11,0;1,7;30;13,2;9,5;48.856412;2.773682
110761;SALLE ANDRE MALRAUX;ILE-DE-FRANCE;102 AV DU GENERAL DE GAULLE;94021;Chevilly-Larue;19930;94;00851;Paris;10909327;02-Petite Couronne;1;405;28;301;8 303;5 823;42,6;De 5 à 10 000 entrées;CENTRE CULTUREL DE CHEVILLY LARUE;;OUI;C;;FIXE;NON;B;93;73;3;53,8;22,9;22,5;0,8;37;50,0;42,1;48.770432;2.350955
111583;FRANCOIS TRUFFAUT;ILE-DE-FRANCE;2 RUE DE L ECOLE;91161;Chilly-Mazarin;19992;91;00851;Paris;10909327;03-Grande couronne;2;409;32;1 816;24 560;17 622;39,4;De 20 à 30 000 entrées;ASSOCIATION FRANCOIS TRUFFAUT;;OUI;C;RDJPPR;FIXE;NON;B;261;171;14;53,1;25,4;18,1;3,4;125;68,0;42,2;48.703333;2.314917
112014;SALLE PAUL ELUARD;ILE-DE-FRANCE;4 AV DE VILLENEUVE ST GEORGES;94022;Choisy-le-Roi;46366;94;00851;Paris;10909327;02-Petite Couronne;1;181;30;598;13 833;13 046;6,0;De 10 à 20 000 entrées;CENTRE D'ACTION CULTURELLE THEATRE PAUL ELUARD CHOISY LE ROI;;OUI;C;JP;FIXE;NON;B;104;77;4;61,0;21,6;17,1;0,3;44;58,0;48,8;48.766383;2.414699
113523;CINEMA JEANNE MOREAU;ILE-DE-FRANCE;22 RUE PAUL VAILLANT COUTURIER;92023;Clamart;53429;92;00851;Paris;10909327;02-Petite Couronne;1;176;26;534;9 894;1 386;613,9;De 5 à 10 000 entrées;COMMUNE DE CLAMART;;OUI;C;RDJP;FIXE;NON;B;80;68;8;82,2;7,7;9,9;0,2;49;76,6;65,5;48.802513;2.263801
114032;ESPACE PHILIPPE NOIRET;ILE-DE-FRANCE;PLACE CHARLES DE GAULLE;78165;Les Clayes-sous-Bois;17794;78;00851;Paris;10909327;03-Grande couronne;2;313;33;1 308;24 414;21 250;14,9;De 20 à 30 000 entrées;COMMUNE DE LES CLAYES SOUS BOIS;;OUI;C;JP;FIXE;NON;B;155;100;11;54,5;30,2;14,5;0,9;42;36,3;30,3;48.821274;1.987156
114042;MY CINE;ILE-DE-FRANCE;SHOPPING PROMENADE 3 RUE ROBERT SCHUMAN;77118;Claye-Souilly;12400;77;77302;Claye-Souilly;12400;03-Grande couronne;3;387;27;2 094;63 696;0;#DIV/0!;De 50 à 80 000 entrées;CINE CLAYE;NOE (Patry);NON;NON;;FIXE;NON;I;59;59;30;21,1;67,6;11,3;0,0;7;5,6;3,3;48.947319;2.673824
117025;M J C THEATRE DE COLOMBES;ILE-DE-FRANCE;96, 98 RUE ST DENIS;92025;Colombes;86633;92;00851;Paris;10909327;02-Petite Couronne;1;322;9;15;642;849;-24,4;Moins de 2000 entrées;MAISON DES JEUNES ET DE LA CULTURE DU THEATRE DE COLOMBES;;NON;NON;;FIXE;NON;B;7;0;0;0,0;0,0;0,0;0,0;0;0,0;0,0;48.923862;2.250041
117051;L'HELIOS;ILE-DE-FRANCE;27 A 39 RUE DU BOURNARD;92025;Colombes;86633;92;00851;Paris;10909327;02-Petite Couronne;4;477;32;3 729;64 655;48 765;32,6;De 50 à 80 000 entrées;QUATRE CLUBS SARL;;OUI;C;JPPR;FIXE;NON;B;142;107;89;42,3;44,8;11,7;1,2;57;41,5;28,0;48.923159;2.255372
117921;LA COUPOLE;ILE-DE-FRANCE;RUE JEAN FRANCOIS MILLET;77122;Combs-la-Ville;21967;77;00851;Paris;10909327;03-Grande couronne;1;236;28;310;5 536;4 737;16,9;De 5 à 10 000 entrées;SCENE NATIONALE DE SENART;;NON;NON;;FIXE;NON;B;91;70;0;62,0;25,5;12,5;0,0;29;42,5;28,1;48.659579;2.566711
119305;PATHE;ILE-DE-FRANCE;RUE DE L'HAUTIL;78172;Conflans-Sainte-Honorine;36068;78;00851;Paris;10909327;03-Grande couronne;13;3105;32;12 099;472 752;329 801;43,3;De 450 à 700 000 entrées;PATHE CONFLANS                                                  ;PATHE GAUMONT;NON;NON;;FIXE;OUI;B;200;173;144;25,5;57,2;16,1;1,1;64;15,0;8,4;49.004829;2.077668
120293;ARCEL;ILE-DE-FRANCE;15 PLACE LEON CASSE;91174;Corbeil-Essonnes;51245;91;00851;Paris;10909327;03-Grande couronne;3;380;32;2 206;20 876;17 699;18,0;De 20 à 30 000 entrées;EDEN CASINO;GPCI (Vintrou);OUI;C;JPPR;FIXE;NON;B;191;149;59;34,4;51,0;13,5;1,1;76;31,9;17,3;48.603813;2.469302
120963;THEATRE DU CORMIER;ILE-DE-FRANCE;123 RUE DE SAINT-GERMAIN;95176;Cormeilles-en-Parisis;24892;95;00851;Paris;10909327;03-Grande couronne;1;307;21;91;2 708;5 226;-48,2;De 2 à 5 000 entrées;COMMUNE DE CORMEILLES EN PARISIS;;NON;NON;;FIXE;NON;B;84;61;0;63,3;26,9;9,1;0,6;25;39,4;22,9;48.959824;2.189151
123373;HEMISPHERE THEATER;ILE-DE-FRANCE;23 RUE MARCEL CLAVIER;77131;Coulommiers;15000;77;77402;Coulommiers;27800;03-Grande couronne;4;568;30;820;10 866;16 105;-32,5;De 10 à 20 000 entrées;ZARATHUSHTRA                                                    ;;OUI;D;JP;FIXE;NON;C;46;31;15;38,2;45,4;15,7;0,7;4;7,7;6,7;48.809696;3.090876
123905;CAMILLE ST SAENS;ILE-DE-FRANCE;15 BOULEVARD ARISTIDE BRIAND;92026;Courbevoie;82856;92;00851;Paris;10909327;02-Petite Couronne;1;360;4;17;2 724;1 544;76,4;De 2 à 5 000 entrées;ASSOCIATION ESPACE CARPEAUX;;NON;NON;;FIXE;NON;B;11;8;0;100,0;0,0;0,0;0,0;6;63,6;49,8;48.899883;2.259136
123914;ABEL GANCE;ILE-DE-FRANCE;184 BD ST DENIS;92026;Courbevoie;82856;92;00851;Paris;10909327;02-Petite Couronne;1;139;32;968;21 984;18 446;19,2;De 20 à 30 000 entrées;ASSOCIATION ESPACE CARPEAUX;;OUI;C;;FIXE;NON;B;159;109;0;59,1;20,0;16,2;4,7;71;60,5;50,5;48.901327;2.271867
125135;L ETOILE;ILE-DE-FRANCE;1 ALLEE DU PROGRES;93027;La Courneuve;44073;93;00851;Paris;10909327;02-Petite Couronne;1;195;28;687;9 681;8 592;12,7;De 5 à 10 000 entrées;ASSOCIATION DEVELOPPEMENT LOISIRS ET CULTURE;;OUI;C;RDJPPR;FIXE;NON;B;149;98;2;23,3;42,9;31,9;1,9;56;55,5;36,4;48.926821;2.391627
128535;LA LUCARNE MJC;ILE-DE-FRANCE;100 RUE JULIETTE SAVAR;94028;Créteil;92737;94;00851;Paris;10909327;02-Petite Couronne;1;92;30;772;7 312;6 289;16,3;De 5 à 10 000 entrées;MAISON DES JEUNES ET DE LA CULTURE DU MONT MESLY;;OUI;C;JP;FIXE;NON;B;138;83;1;45,4;20,2;16,1;18,2;61;74,1;67,3;48.777428;2.466468
128541;CINEMA DU PALAIS;ILE-DE-FRANCE;40 ALLEE PARMENTIER;94028;Créteil;92737;94;00851;Paris;10909327;02-Petite Couronne;3;490;32;2 899;36 917;32 547;13,4;De 30 à 40 000 entrées;CINEMAS DU PALAIS;;OUI;C;RDJPPR;FIXE;NON;B;169;124;79;64,4;10,8;19,5;5,3;103;88,2;87,0;48.786063;2.444158
133212;PATHE DAMMARIE;ILE-DE-FRANCE;824 AVENUE DU LYS;77152;Dammarie-les-Lys;22320;77;00851;Paris;10909327;03-Grande couronne;10;2181;32;10 076;142 408;109 103;30,5;De 100 à 150 000 entrées;PATHE DAMMARIE;PATHE GAUMONT;NON;NON;;FIXE;OUI;B;183;153;122;31,5;53,0;14,3;1,2;51;13,4;7,2;48.517401;2.627798
140521;ESPACE ERMITAGE;ILE-DE-FRANCE;ALLEE STE THERESE;95199;Domont;15611;95;00851;Paris;10909327;03-Grande couronne;1;282;32;946;15 730;12 286;28,0;De 10 à 20 000 entrées;CENTRE SOCIAL CULTUREL DOMONTOIS;;NON;NON;;FIXE;NON;B;102;90;10;47,3;39,4;12,7;0,5;26;17,8;13,1;49.02987;2.333691
142171;PARTERRE;ILE-DE-FRANCE;SQUARE DE LAC MEGANTIC;91200;Dourdan;10748;91;91302;Dourdan;12139;03-Grande couronne;2;227;32;1 497;20 721;14 009;47,9;De 20 à 30 000 entrées;ASSOCIATION DOURDANNAISE D'ANIMATION CULTURELLE;GPCI (Vintrou);OUI;E;JPPR;FIXE;NON;C;175;142;45;43,2;43,1;12,9;0,8;71;31,2;20,4;48.528741;2.015215
142752;ESPACE CULTUREL DU PARC;ILE-DE-FRANCE;PLACE MAURICE NILES;93029;Drancy;72391;93;00851;Paris;10909327;02-Petite Couronne;1;329;16;93;3 153;4 291;-26,5;De 2 à 5 000 entrées;COMMUNE DE DRANCY;;NON;NON;;FIXE;NON;B;25;23;0;20,9;73,7;5,3;0,0;5;21,1;8,6;48.927466;2.438309
144262;L'ORANGE BLEUE;ILE-DE-FRANCE;7 RUE JEAN MERMOZ;95203;Eaubonne;25454;95;00851;Paris;10909327;03-Grande couronne;1;345;18;55;3 001;2 838;5,7;De 2 à 5 000 entrées;COMMUNE DE EAUBONNE;;NON;NON;;FIXE;NON;B;38;29;0;67,9;21,8;9,5;0,8;24;82,4;67,3;48.992968;2.278288
146371;GRENOUILLE;ILE-DE-FRANCE;CENTRE COMMERCIAL DES 7 MARES;78208;Élancourt;25820;78;00851;Paris;10909327;03-Grande couronne;3;348;32;2 289;40 570;33 659;20,5;De 40 à 50 000 entrées;SOCIETE D'ECONOMIE MIXTE DU CINEMA DES SEPT MARES;;OUI;C;RDJPPR;FIXE;NON;B;174;140;61;44,2;40,6;14,6;0,6;67;34,5;24,7;48.766594;1.949214
147071;FRANCAIS;ILE-DE-FRANCE;38 RUE DU GENERAL DE GAULLE;95210;Enghien-les-Bains;11439;95;00851;Paris;10909327;03-Grande couronne;5;1222;32;3 722;78 783;61 099;28,9;De 50 à 80 000 entrées;UGC SAS;UGC;NON;NON;;FIXE;NON;B;102;74;57;37,6;46,0;16,2;0,1;28;25,7;17,7;48.970841;2.307185
147084;CENTRE DES ARTS;ILE-DE-FRANCE;12-16, RUE DE LA LIBERATION;95210;Enghien-les-Bains;11439;95;00851;Paris;10909327;03-Grande couronne;1;320;23;209;5 702;4 753;20,0;De 5 à 10 000 entrées;COMMUNE D'ENGHIEN LES BAINS;;OUI;C;JPPR;FIXE;NON;B;71;26;1;64,7;23,2;12,1;0,0;21;74,7;74,9;48.971934;2.305204
148321;SALLE SERGE GAINSBOURG;ILE-DE-FRANCE;RUE DU GENERAL JULIEN;93031;Épinay-sur-Seine;54928;93;00851;Paris;10909327;02-Petite Couronne;1;180;12;44;2 006;1 563;28,3;De 2 à 5 000 entrées;ESPACE CINEMA;;NON;NON;;FIXE;NON;B;6;0;0;0,0;0,0;0,0;0,0;0;0,0;0,0;48.95411;2.312115
148324;MEGA CGR;ILE-DE-FRANCE;5 AVENUE DU MARECHAL  JOFFRE;93031;Épinay-sur-Seine;54928;93;00851;Paris;10909327;02-Petite Couronne;12;2470;32;14 184;187 175;114 572;63,4;De 150 à 200 000 entrées;VILLERAY;LES FILMS DE LA ROCHELLE;NON;NON;;FIXE;OUI;B;184;148;149;18,8;61,2;14,9;5,1;27;11,9;4,4;48.957859;2.301996
149335;PIERRE FRESNAY;ILE-DE-FRANCE;3 RUE SAINT FLAIVE;95219;Ermont;29314;95;00851;Paris;10909327;03-Grande couronne;1;400;13;57;2 957;6 742;-56,1;De 2 à 5 000 entrées;COMMUNE DE ERMONT;;NON;NON;;FIXE;NON;B;46;41;0;56,8;26,0;16,7;0,5;13;31,1;23,9;48.988575;2.259906
152882;LA ROTONDE A;ILE-DE-FRANCE;102 RUE SAINT JACQUES;91223;Étampes;25471;91;91401;Étampes;31180;03-Grande couronne;3;338;32;2 999;25 016;18 658;34,1;De 20 à 30 000 entrées;OMNICOM;;NON;NON;;FIXE;NON;C;82;74;56;26,8;60,5;11,6;1,1;5;9,2;4,8;48.433642;2.155867
152884;CINETAMPES;ILE-DE-FRANCE;PLACE GEOFFROY ST HILAIRE;91223;Étampes;25471;91;91401;Étampes;31180;03-Grande couronne;1;146;32;461;3 938;3 329;18,3;De 2 à 5 000 entrées;ASSOCIATION ETAMPOISE CINE PETIT THEATRE;;OUI;D;PR;FIXE;NON;C;123;85;4;79,5;9,6;3,1;7,8;71;83,5;85,4;48.434287;2.157598
154488;MEGA CGR;ILE-DE-FRANCE;PLACE DE L'AGORA - CE 169;91228;Évry;67591;91;00851;Paris;10909327;03-Grande couronne;10;2052;32;12 097;94 643;64 630;46,4;De 80 à 100 000 entrées;ESPACE LOISIRS                                                  ;LES FILMS DE LA ROCHELLE;NON;NON;;FIXE;OUI;B;161;128;125;16,0;66,0;12,3;5,8;16;6,6;3,1;48.627929;2.429517
162844;ERMITAGE;ILE-DE-FRANCE;6 RUE DE FRANCE;77186;Fontainebleau;15862;77;77406;Fontainebleau;37628;03-Grande couronne;5;944;32;4 019;36 613;29 250;25,2;De 30 à 40 000 entrées;L ERMITAGE;J. Reynaud;OUI;D;RDJPPR;FIXE;NON;C;171;132;112;67,4;13,6;12,8;6,2;100;82,5;77,1;48.404394;2.699594
162853;CINEPARADIS;ILE-DE-FRANCE;10 AVENUE MARECHAL DE VILLARS;77186;Fontainebleau;15862;77;77406;Fontainebleau;37628;03-Grande couronne;6;1080;32;5 443;86 459;51 310;68,5;De 80 à 100 000 entrées;L ERMITAGE;J. Reynaud;OUI;D;JP;FIXE;NON;C;144;115;109;36,3;47,4;15,2;1,2;31;16,0;12,7;48.400175;2.71613
163962;LE SCARRON;ILE-DE-FRANCE;8 AV. JEANNE ET MAURICE DOLIVET;92032;Fontenay-aux-Roses;25578;92;00851;Paris;10909327;02-Petite Couronne;1;198;28;523;13 746;10 482;31,1;De 10 à 20 000 entrées;COMITE MUNICIPAL DES FETES;;OUI;C;JP;FIXE;NON;B;102;72;0;59,8;24,3;13,3;2,7;43;58,4;50,5;48.791543;2.289748
164022;THEATRE DE FONTENAY;ILE-DE-FRANCE;PLACE DU 8 MAI 1945;78242;Fontenay-le-Fleury;13637;78;00851;Paris;10909327;03-Grande couronne;1;346;30;467;7 612;7 453;2,1;De 5 à 10 000 entrées;ASSOCIATION DU THEATRE DE FONTENAY LE FLEURY;;OUI;C;JP;FIXE;NON;B;133;112;4;51,9;22,8;21,7;3,5;58;50,3;47,2;48.811271;2.045243
164112;LE KOSMOS;ILE-DE-FRANCE;243TER AVENUE DE LA REPUBLIQUE;94033;Fontenay-sous-Bois;52685;94;00851;Paris;10909327;02-Petite Couronne;1;190;32;586;16 404;13 901;18,0;De 10 à 20 000 entrées;FONTENAY EN SCENES;;OUI;C;RDJPPR;FIXE;NON;B;104;72;2;71,1;12,4;12,0;4,5;58;83,0;75,0;48.852329;2.461111
166051;CINEMA DE L YSIEUX;ILE-DE-FRANCE;PLACE JEAN MOULIN;95250;Fosses;9798;95;95401;Fosses;22206;03-Grande couronne;1;195;32;954;12 636;10 214;23,7;De 10 à 20 000 entrées;COMMUNAUTE D AGGLOMERATION ROISSY PAYS DE FRANCE;;OUI;D;RDJPPR;FIXE;NON;C;196;143;1;65,3;22,7;10,2;1,8;92;65,5;51,3;49.099464;2.524882
168193;CINE HENRI LANGLOIS;ILE-DE-FRANCE;32 BIS RUE DE LA STATION;95252;Franconville;37179;95;00851;Paris;10909327;03-Grande couronne;2;518;28;1 524;15 542;13 080;18,8;De 10 à 20 000 entrées;ASSOCIATION CINE HENRI LANGLOIS;GPCI (Vintrou);OUI;C;RDJPPR;FIXE;NON;B;153;131;23;58,3;26,3;14,9;0,5;70;39,3;29,4;48.988437;2.232576
169572;M J C;ILE-DE-FRANCE;2 AV DU PARC DES SPORTS;94034;Fresnes;28342;94;00851;Paris;10909327;02-Petite Couronne;1;158;20;150;5 850;2 515;132,6;De 5 à 10 000 entrées;MAISON DES JEUNES ET DE LA CULTURE DE FRESNES;;NON;NON;;FIXE;NON;B;21;8;1;8,0;62,2;29,8;0,0;3;19,1;12,9;48.752796;2.313077
172043;THEATRE ANDRE MALRAUX;ILE-DE-FRANCE;1 BIS RUE GUILLEMETEAU;93032;Gagny;39816;93;00851;Paris;10909327;02-Petite Couronne;1;450;28;278;4 503;3 952;13,9;De 2 à 5 000 entrées;ASSOCIATION LE CINEMA DE GAGNY;;OUI;C;;FIXE;NON;B;112;87;0;59,5;20,1;19,1;1,4;53;57,0;35,9;48.884043;2.529952
172914;CINE GARCHES;ILE-DE-FRANCE;86 GRANDE RUE;92033;Garches;18197;92;00851;Paris;10909327;02-Petite Couronne;2;434;29;721;12 182;8 680;40,3;De 10 à 20 000 entrées;COMMUNE DE LIART;GPCI (Vintrou);NON;NON;;FIXE;NON;B;123;108;25;56,5;30,5;10,4;2,5;53;44,0;30,1;48.844239;2.188722
173332;JACQUES BREL A;ILE-DE-FRANCE;PLACE DE L'HOTEL DE VILLE;95268;Garges-lès-Gonesse;43051;95;00851;Paris;10909327;03-Grande couronne;1;225;28;444;5 288;4 333;22,0;De 5 à 10 000 entrées;COMMUNE DE GARGES LES GONESSE;;OUI;C;JPPR;FIXE;NON;B;93;70;1;43,3;30,2;26,6;0,0;29;35,4;35,3;48.971945;2.399817
175513;CINEMA JEAN VIGO;ILE-DE-FRANCE;1 RUE PIERRE ET MARIE CURIE;92036;Gennevilliers;47921;92;00851;Paris;10909327;02-Petite Couronne;2;290;28;1 223;23 631;18 490;27,8;De 20 à 30 000 entrées;ASSOCIATION CENTRE DE LOISIRS;;OUI;C;RDJPPR;FIXE;NON;B;179;122;10;53,1;32,0;12,8;2,1;76;58,2;43,0;48.928469;2.293206
175794;LE LAVOIR NUMERIQUE;ILE-DE-FRANCE;10 RUE VICTOR MARQUIGNY;94037;Gentilly;18685;94;00851;Paris;10909327;02-Petite Couronne;1;90;17;29;22;0;#DIV/0!;Moins de 2000 entrées;GRAND-ORLY SEINE BIEVRE;;NON;NON;;FIXE;NON;B;24;1;0;100,0;0,0;0,0;0,0;1;100,0;100,0;48.815668;2.346427
177201;LE CENTRAL;ILE-DE-FRANCE;SQUARE DE LA MAIRIE;91272;Gif-sur-Yvette;21910;91;00851;Paris;10909327;03-Grande couronne;1;155;28;564;7 246;5 991;20,9;De 5 à 10 000 entrées;LES VRAIS INSTANTS DE L  IMAGE;UGC;OUI;C;;FIXE;NON;B;38;33;6;58,5;20,0;19,9;1,6;17;49,4;48,6;48.701701;2.13387
179852;CINE THEATRE JACQUES PREVERT;ILE-DE-FRANCE;PLACE AIME-CESAIRE;95277;Gonesse;26139;95;00851;Paris;10909327;03-Grande couronne;1;223;32;780;13 633;11 081;23,0;De 10 à 20 000 entrées;COMMUNE DE GONESSE;;OUI;C;RDJP;FIXE;NON;B;193;131;4;51,8;30,0;15,3;2,9;81;64,9;44,6;48.999982;2.428131
193442;LA TOURNELLE;ILE-DE-FRANCE;14 RUE DISPAN;94038;L' Haÿ-les-Roses;31589;94;00851;Paris;10909327;02-Petite Couronne;1;274;31;581;16 925;14 420;17,4;De 10 à 20 000 entrées;COMMUNE DE L HAY LES  ROSES;GPCI (Vintrou);OUI;C;JP;FIXE;NON;B;124;96;8;61,8;23,3;14,6;0,2;56;57,4;47,8;48.779749;2.339014
201524;LE CONTI;ILE-DE-FRANCE;PLACE DU PATIS;95313;L' Isle-Adam;12201;95;00851;Paris;10909327;03-Grande couronne;5;739;32;3 739;47 512;28 222;68,4;De 40 à 50 000 entrées;SPECTA;GPCI (Vintrou);OUI;C;;FIXE;NON;B;182;148;78;41,4;44,2;13,5;0,9;54;19,4;12,2;49.110771;2.211976
202214;CINE D ISSY;ILE-DE-FRANCE;MAIL RAYMOND MENAND;92040;Issy-les-Moulineaux;68980;92;00851;Paris;10909327;02-Petite Couronne;1;376;26;269;14 057;11 566;21,5;De 10 à 20 000 entrées;SOCIETE D EXPLOITATION DU PALAIS DES ARTS ET CONGRES D ISSY LES;;NON;NON;;FIXE;NON;B;50;44;15;69,7;15,6;14,7;0,0;20;53,0;42,2;48.825247;2.271161
202370;0SALLE GEORGES BRASSENS;ILE-DE-FRANCE;SALLE GEORGES BRASSENS;91315;Itteville;6598;91;91402;Ballancourt-sur-Essonne;35634;03-Grande couronne;1;340;22;71;2 774;3 209;-13,6;De 2 à 5 000 entrées;CINESSONE;;NON;NON;;ITINERANT;NON;C;37;22;0;40,3;18,4;41,3;0,0;8;37,1;33,5;48.515193;2.341767
202551;LE LUXY;ILE-DE-FRANCE;77 AV GEORGES GOSNAT;94041;Ivry-sur-Seine;63562;94;00851;Paris;10909327;02-Petite Couronne;2;507;32;1 569;37 388;32 788;14,0;De 30 à 40 000 entrées;COMMUNE D IVRY SUR SEINE;;OUI;C;RDJPPR;FIXE;NON;B;203;117;42;67,4;8,4;17,8;6,4;106;95,2;94,2;48.81362;2.389338
202562;PATHE;ILE-DE-FRANCE;5 RUE FRANCOIS MITTERRAND;94041;Ivry-sur-Seine;63562;94;00851;Paris;10909327;02-Petite Couronne;14;3830;32;12 918;315 119;214 890;46,6;De 300 à 450 000 entrées;PATHE IVRY                                                      ;PATHE GAUMONT;NON;NON;;FIXE;OUI;B;163;140;137;15,1;65,5;18,0;1,4;29;10,2;6,3;48.824074;2.387803
204534;SALLE PIERRE ET JACQUES PREVERT;ILE-DE-FRANCE;RUE DE PARIS;94042;Joinville-le-Pont;19673;94;00851;Paris;10909327;02-Petite Couronne;1;300;23;119;5 086;5 779;-12,0;De 5 à 10 000 entrées;COMMUNE DE JOINVILLE LE PONT;GPCI (Vintrou);NON;NON;;FIXE;NON;B;73;59;0;54,1;24,1;20,3;1,5;31;51,7;38,7;48.816711;2.468136
205601;CENTRE CULTUREL;ILE-DE-FRANCE;96 AVENUE DES BRUZACQUES;95323;Jouy-le-Moutier;16343;95;00851;Paris;10909327;03-Grande couronne;1;346;16;62;2 884;4 188;-31,1;De 2 à 5 000 entrées;COMMUNE DE JOUY LE MOUTIER;;NON;NON;;FIXE;NON;B;34;25;0;61,2;17,2;21,6;0,0;12;48,6;42,0;49.011314;2.043572
206924;CINEMA AGNES VARDA;ILE-DE-FRANCE;37-39 GRANDE RUE;91326;Juvisy-sur-Orge;17132;91;00851;Paris;10909327;03-Grande couronne;1;123;28;500;6 265;5 499;13,9;De 5 à 10 000 entrées;LE CENTRE CULTUREL DES PORTES DE L  ESSONNE;;OUI;C;JP;FIXE;NON;B;123;97;0;66,5;19,5;13,3;0,6;56;60,2;52,1;48.688996;2.376314
211844;CINEMA LE CINQ;ILE-DE-FRANCE;5 RUE DELAMBRE;77243;Lagny-sur-Marne;21580;77;00851;Paris;10909327;03-Grande couronne;3;492;32;3 958;59 773;45 534;31,3;De 50 à 80 000 entrées;CINEFUTUR AUDIOVISUEL;GPCI (Vintrou);OUI;C;;FIXE;NON;B;171;136;66;43,8;44,2;11,1;1,0;58;21,2;16,3;48.879604;2.706124
224413;PATHE;ILE-DE-FRANCE;28 RUE D'ALSACE;92044;Levallois-Perret;66390;92;00851;Paris;10909327;02-Petite Couronne;8;1538;32;7 089;239 649;150 326;59,4;De 200 à 300 000 entrées;PATHE LEVALLOIS                                                 ;PATHE GAUMONT;NON;NON;;FIXE;OUI;B;156;142;111;33,9;47,4;17,8;0,9;55;18,5;13,0;48.891726;2.296363
226040;PATHE;ILE-DE-FRANCE;3 ALLEE DU PREAMBULE;77251;Lieusaint;13502;77;00851;Paris;10909327;03-Grande couronne;17;3790;32;18 893;701 315;522 268;34,3;De 700 000 à 1 million d'entrées;PATHE SENART;PATHE GAUMONT;NON;NON;;FIXE;OUI;B;196;173;173;23,8;59,5;15,4;1,3;57;16,9;7,6;48.616119;2.547927
226883;THEATRE DU GARDE CHASSE;ILE-DE-FRANCE;2 AVENUE WALDECK ROUSSEAU;93045;Les Lilas;23533;93;00851;Paris;10909327;02-Petite Couronne;1;308;26;419;8 200;7 571;8,3;De 5 à 10 000 entrées;COMMUNE DES LILAS;GPCI (Vintrou);OUI;C;;FIXE;NON;B;125;106;1;74,8;6,0;14,6;4,6;85;79,7;79,7;48.881921;2.419546
228122;ATELIER BARBARA;ILE-DE-FRANCE;22-24 RUE ALSACE LORRAINE;94044;Limeil-Brévannes;27796;94;00851;Paris;10909327;02-Petite Couronne;1;165;28;97;2 098;1 591;31,9;De 2 à 5 000 entrées;KART OON SARL;;NON;NON;;FIXE;NON;B;80;70;0;55,0;31,9;13,1;0,0;23;30,3;24,1;48.744182;2.503331
229833;CINE MUNICIPAL YVES MONTAND;ILE-DE-FRANCE;36 RUE EUGENE MASSE;93046;Livry-Gargan;45221;93;00851;Paris;10909327;02-Petite Couronne;1;264;29;639;14 070;16 017;-12,2;De 10 à 20 000 entrées;COMMUNE DE LIVRY GARGAN;GPCI (Vintrou);OUI;C;JP;FIXE;NON;B;110;90;0;53,8;37,4;8,3;0,6;33;32,9;19,3;48.92579;2.545121
231939;THEATRE DE LONGJUMEAU;ILE-DE-FRANCE;20 AVENUE DU GENERAL DE GAULLE;91345;Longjumeau;21106;91;00851;Paris;10909327;03-Grande couronne;1;862;23;137;4 185;2 636;58,8;De 2 à 5 000 entrées;PRODUCENE;;NON;NON;;FIXE;NON;B;77;59;0;42,7;41,6;15,8;0,0;16;26,2;14,2;48.679684;2.313256
241923;THEATRE CLAUDE DEBUSSY;ILE-DE-FRANCE;116 AVENUE DU GENERAL DE GAULLE;94046;Maisons-Alfort;56188;94;00851;Paris;10909327;02-Petite Couronne;1;406;23;109;7 909;7 434;6,4;De 5 à 10 000 entrées;MUSIQUE ET DANSE;;NON;NON;;FIXE;NON;B;54;46;0;74,5;12,6;12,8;0,0;28;60,2;48,1;48.801474;2.430493
242003;L'ATALANTE;ILE-DE-FRANCE;48 RUE DU PRIEURE;78358;Maisons-Laffitte;24124;78;00851;Paris;10909327;03-Grande couronne;1;163;31;753;22 459;17 881;25,6;De 20 à 30 000 entrées;CINELAB FRANCE                                                  ;;OUI;C;JP;FIXE;NON;B;108;85;16;52,3;31,0;15,1;1,6;51;52,7;46,0;48.946355;2.147062
242422;MARCEL PAGNOL;ILE-DE-FRANCE;17 RUE BERANGER;92046;Malakoff;30911;92;00851;Paris;10909327;02-Petite Couronne;1;198;27;393;16 303;14 057;16,0;De 10 à 20 000 entrées;ASSOCIATION THEATRE 71;;OUI;C;JP;FIXE;NON;B;92;72;3;70,0;14,7;13,1;2,2;54;77,7;68,7;48.820911;2.302756
244700;MEGA CGR;ILE-DE-FRANCE;PLACE HENRI DUNANT;78361;Mantes-la-Jolie;44423;78;00851;Paris;10909327;03-Grande couronne;9;2053;32;10 804;196 090;127 890;53,3;De 150 à 200 000 entrées;RAYMANTES                                                       ;LES FILMS DE LA ROCHELLE;NON;NON;;FIXE;OUI;B;147;120;117;24,3;60,4;13,0;2,2;23;11,2;4,8;48.989664;1.715981
244715;LE CHAPLIN;ILE-DE-FRANCE;PLACE MENDES FRANCE;78361;Mantes-la-Jolie;44423;78;00851;Paris;10909327;03-Grande couronne;1;300;14;52;3 058;3 495;-12,5;De 2 à 5 000 entrées;CENTRE CULTUREL LE CHAPLIN;;NON;NON;;FIXE;NON;B;12;2;0;100,0;0,0;0,0;0,0;2;100,0;100,0;49.000101;1.683456
246432;ATMOSPHERE;ILE-DE-FRANCE;PARC DES CELESTINS;91363;Marcoussis;8328;91;00851;Paris;10909327;03-Grande couronne;1;231;38;452;10 114;8 373;20,8;De 10 à 20 000 entrées;COMMUNE DE MARCOUSSIS;MICROMEGAS (Clochard);OUI;C;JP;FIXE;NON;B;116;91;0;51,6;32,8;14,1;1,5;49;48,7;36,1;48.642026;2.222592
248192;FONTENELLE;ILE-DE-FRANCE;10 RUE CARNOT;78372;Marly-le-Roi;16833;78;00851;Paris;10909327;03-Grande couronne;2;336;32;1 536;27 639;24 636;12,2;De 20 à 30 000 entrées;CINELAB OUEST;;OUI;C;JPPR;FIXE;NON;B;165;134;40;61,5;21,9;14,5;2,1;84;54,9;45,9;48.871284;2.095564
252134;CINEMASSY;ILE-DE-FRANCE;PLACE DE FRANCE;91377;Massy;50985;91;00851;Paris;10909327;03-Grande couronne;1;194;2;4;36;14 057;-99,7;Moins de 2000 entrées;CINEMASSY;;OUI;C;;FIXE;NON;B;2;0;0;0,0;0,0;0,0;0,0;0;0,0;0,0;48.732679;2.288638
252712;LES 2 SCENES;ILE-DE-FRANCE;PLACE HENRI DUNANT;78380;Maule;6099;78;78301;Maule;10574;03-Grande couronne;1;102;29;838;12 608;9 987;26,2;De 10 à 20 000 entrées;COMMUNAUTE DE COMMUNES DE GALLY-MAULDRE                         ;GPCI (Vintrou);OUI;E;RDJPPR;FIXE;NON;C;134;115;7;62,4;21,2;13,9;2,5;76;60,9;51,4;48.916554;1.821165
255991;VARIETES;ILE-DE-FRANCE;20 BD CHAMBLAIN;77288;Melun;40249;77;00851;Paris;10909327;03-Grande couronne;3;566;32;2 014;20 537;14 922;37,6;De 20 à 30 000 entrées;VARIETES CINEMA;GPCI (Vintrou);OUI;C;JPPR;FIXE;NON;B;197;157;35;47,9;41,5;8,9;1,7;73;32,4;25,0;48.533449;2.6548
256983;CINEMA CONFLUENCES MENNECY;ILE-DE-FRANCE;ZAC MONTVRAIN II;91386;Mennecy;14961;91;00851;Paris;10909327;03-Grande couronne;3;324;32;2 563;41 885;25 461;64,5;De 40 à 50 000 entrées;CINEMA CONFLUENCES MENNECY;;OUI;C;;FIXE;NON;B;101;85;66;40,2;48,9;10,8;0,1;22;13,8;8,0;48.564849;2.441479
258952;LA LUCIOLE;ILE-DE-FRANCE;1 ROUTE DE PONTOISE;95394;Méry-sur-Oise;9997;95;00851;Paris;10909327;03-Grande couronne;1;228;21;157;2 846;2 377;19,7;De 2 à 5 000 entrées;VILLE DE MERY SUR OISE;GPCI (Vintrou);NON;NON;;FIXE;NON;B;70;57;0;51,2;28,4;20,4;0,0;15;24,4;19,1;49.060326;2.170288
260903;CENTRE D ART ET DE CULTURE;ILE-DE-FRANCE;15 BOULEVARD DES NATIONS-UNIES;92048;Meudon;46430;92;00851;Paris;10909327;02-Petite Couronne;1;458;23;273;11 563;9 295;24,4;De 10 à 20 000 entrées;COMMUNE DE MEUDON;;OUI;C;;FIXE;NON;B;108;73;0;48,3;32,7;12,9;6,0;40;55,4;46,0;48.81334;2.235774
260904;ESPACE CULTUREL ROBERT-DOISNEAU;ILE-DE-FRANCE;16 AV DE LATTRE DE TASSIGNY;92048;Meudon;46430;92;00851;Paris;10909327;02-Petite Couronne;1;268;21;184;4 487;4 399;2,0;De 2 à 5 000 entrées;COMMUNE DE MEUDON;;NON;NON;;FIXE;NON;B;75;65;0;68,7;20,0;10,1;1,2;31;51,8;35,8;48.7873;2.23254
263912;CONCORDE;ILE-DE-FRANCE;4 AV DES BOSQUETS;77294;Mitry-Mory;20436;77;00851;Paris;10909327;03-Grande couronne;1;210;32;829;13 001;10 171;27,8;De 10 à 20 000 entrées;ASSOCIATION MITRYENNE DE LOISIRS;GPCI (Vintrou);OUI;C;JPPR;FIXE;NON;B;220;159;7;51,7;33,5;12,9;1,9;92;54,4;27,4;48.956929;2.603083
264672;LA ROTONDE;ILE-DE-FRANCE;PLACE DU 14 JUILLET;77296;Moissy-Cramayel;18018;77;00851;Paris;10909327;03-Grande couronne;1;349;32;485;10 240;7 648;33,9;De 10 à 20 000 entrées;SCENE NATIONALE DE SENART;;OUI;C;JP;FIXE;NON;B;119;90;1;49,1;37,3;12,9;0,7;42;44,2;26,3;48.628281;2.589982
267481;CINEMA  11X20 14;ILE-DE-FRANCE;21 RUE DE LA CROIX-ROUGE;77298;Mons-en-Montois;459;77;00000;Zone rurale;14862638;03-Grande couronne;1;48;22;300;1 539;1 789;-14,0;Moins de 2000 entrées;ONZE VINGT QUATORZE OU 11 X 20 + 14;GPCI (Vintrou);OUI;E;;FIXE;NON;R;143;97;0;65,2;13,8;9,0;12,1;90;92,7;86,1;48.490092;3.148397
272392;LE CYRANO;ILE-DE-FRANCE;114 AVENUE DE LA REPUBLIQUE;91421;Montgeron;24069;91;00851;Paris;10909327;03-Grande couronne;1;329;28;672;16 417;15 081;8,9;De 10 à 20 000 entrées;COMMUNAUTE D'AGGLOMERATION SENART VAL DE SEINE;;OUI;C;RDJP;FIXE;NON;B;129;97;1;71,7;7,5;17,7;3,0;76;79,3;69,0;48.703763;2.46109
273071;JACQUES BREL;ILE-DE-FRANCE;RUE DE LA MARE AUX CARATS;78423;Montigny-le-Bretonneux;33046;78;00851;Paris;10909327;03-Grande couronne;1;282;32;197;5 245;5 779;-9,2;De 5 à 10 000 entrées;COMMUNE DE MONTIGNY LE BRETONNEUX;;NON;NON;;FIXE;NON;B;67;51;0;53,0;32,0;13,9;1,1;18;36,9;32,0;48.77004;2.03446
273182;CENTRE PICASSO;ILE-DE-FRANCE;RUE GUY DE MAUPASSANT;95424;Montigny-lès-Cormeilles;21748;95;00851;Paris;10909327;03-Grande couronne;1;304;25;84;3 883;4 326;-10,2;De 2 à 5 000 entrées;OFFICE MUNICIPALE DE LA CULTURE (MONTIGNY);;NON;NON;;FIXE;NON;B;31;23;0;31,2;26,2;41,0;1,6;3;20,5;38,1;48.997001;2.200873
274702;L'EDEN;ILE-DE-FRANCE;5 RUE DE PONTOISE;95428;Montmorency;21897;95;00851;Paris;10909327;03-Grande couronne;2;222;31;1 372;17 342;15 786;9,9;De 10 à 20 000 entrées;CINELAB MONTMORENCY;;OUI;C;JPPR;FIXE;NON;B;169;137;36;60,6;21,3;16,0;2,1;86;58,5;44,9;48.988818;2.318091
276086;MELIES;ILE-DE-FRANCE;PLACE JEAN JAURES;93048;Montreuil;110465;93;00851;Paris;10909327;02-Petite Couronne;6;1139;32;6 064;189 709;136 278;39,2;De 150 à 200 000 entrées;EST ENSEMBLE;Cosme;OUI;C;RDJPPR;FIXE;NON;B;382;226;188;57,0;22,2;14,4;6,4;181;81,3;73,9;48.862437;2.442502
276554;CINE MONTROUGE;ILE-DE-FRANCE;88 RUE RACINE;92049;Montrouge;48965;92;00851;Paris;10909327;02-Petite Couronne;1;154;27;364;9 429;8 844;6,6;De 5 à 10 000 entrées;INSTITUT DE FORMATION D ANIMATION ET DE CONSEIL;;OUI;C;JP;FIXE;NON;B;88;69;0;63,8;22,4;13,5;0,3;35;53,4;47,3;48.813222;2.311441
283043;FREDERIC DARD CLUB A;ILE-DE-FRANCE;77 RUE PAUL DOUMER;78440;Les Mureaux;33105;78;00851;Paris;10909327;03-Grande couronne;2;360;31;1 298;14 761;13 181;12,0;De 10 à 20 000 entrées;ASSOCIATION DE DIFFUSION CULTURELLE DES MUREAUX;;OUI;C;JP;FIXE;NON;B;118;102;12;32,4;54,7;11,3;1,6;40;27,6;14,4;48.993874;1.910246
284362;LA BERGERIE;ILE-DE-FRANCE;COUR EMILE ZOLA;77327;Nangis;8860;77;77208;Nangis;8860;03-Grande couronne;1;132;15;188;2 329;3 498;-33,4;De 2 à 5 000 entrées;COMMUNE DE NANGIS;;OUI;E;JPPR;FIXE;NON;I;48;37;0;49,5;35,4;15,1;0,0;19;53,3;27,3;48.555127;3.0133
284490;LES LUMIERES;ILE-DE-FRANCE;49 RUE MAURICE THOREZ;92050;Nanterre;97453;92;00851;Paris;10909327;02-Petite Couronne;4;660;32;4 187;52 547;47 768;10,0;De 50 à 80 000 entrées;SOCIETE D ECONOMIE MIXTE D AMENAGEMENT ET DE GESTION DE LA VILLE;MICROMEGAS (Clochard);OUI;C;RDJPPR;FIXE;NON;B;157;109;84;45,2;42,4;10,3;2,0;68;49,2;35,9;48.892601;2.195729
284502;CAP CINEMA NANTERRE;ILE-DE-FRANCE;200 ALLEE DE CORSE;92050;Nanterre;97453;92;00851;Paris;10909327;02-Petite Couronne;10;1491;32;11 650;61 109;9 297;557,3;De 50 à 80 000 entrées;CAP CINEMA NANTERRE;LES FILMS DE LA ROCHELLE;NON;NON;;FIXE;OUI;B;150;125;126;18,0;63,3;15,1;3,6;13;7,9;4,4;48.900167;2.21295
286831;MELIES;ILE-DE-FRANCE;9 RUE BEZOUT;77333;Nemours;13288;77;77401;Nemours;21385;03-Grande couronne;3;507;32;1 550;15 102;8 467;78,4;De 10 à 20 000 entrées;LES MELIES;J. Reynaud;NON;NON;;FIXE;NON;C;93;71;40;31,2;55,1;11,1;2,7;22;6,3;4,8;48.265654;2.695374
288024;LA FAUVETTE;ILE-DE-FRANCE;21 AV DANIEL PERDRIGE;93049;Neuilly-Plaisance;21043;93;00851;Paris;10909327;02-Petite Couronne;1;146;30;749;11 310;8 289;36,4;De 10 à 20 000 entrées;COMMUNE DE NEUILLY  PLAISANCE;;OUI;C;JPPR;FIXE;NON;B;138;99;1;63,4;21,1;13,5;2,0;54;53,4;44,0;48.87311;2.510505
288151;LE VILLAGE I;ILE-DE-FRANCE;4 RUE DE CHEZY;92051;Neuilly-sur-Seine;60930;92;00851;Paris;10909327;02-Petite Couronne;2;500;32;1 386;33 992;25 736;32,1;De 30 à 40 000 entrées;PARAFRANCE COMMUNICATION;UGC;NON;NON;;FIXE;NON;B;68;52;22;55,6;21,1;22,3;1,0;19;43,8;32,8;48.885364;2.268222
291891;ROYAL PALACE;ILE-DE-FRANCE;165 GRANDE RUE CHARLES DE GAULLE;94052;Nogent-sur-Marne;33146;94;00851;Paris;10909327;02-Petite Couronne;6;815;32;5 473;104 989;75 389;39,3;De 100 à 150 000 entrées;LES IMAGES;AGORA;OUI;C;RDJP;FIXE;NON;B;192;157;107;42,9;42,5;13,4;1,1;82;33,0;23,9;48.838331;2.489437
292341;LA FERME DU BUISSON;ILE-DE-FRANCE;ALLEE DE LA FERME;77337;Noisiel;15781;77;00851;Paris;10909327;03-Grande couronne;2;386;32;1 645;25 307;22 615;11,9;De 20 à 30 000 entrées;LA FERME DU BUISSON;;OUI;C;RDJPPR;FIXE;NON;B;149;114;14;64,3;19,1;12,9;3,7;93;83,6;73,2;48.84468;2.624254
292374;UGC CINE CITE;ILE-DE-FRANCE;CENTRE COMMERCIAL LES ARCADES;93051;Noisy-le-Grand;68511;93;00851;Paris;10909327;02-Petite Couronne;10;1799;32;9 732;149 419;125 161;19,4;De 100 à 150 000 entrées;UGC SAS;UGC;NON;NON;;FIXE;OUI;B;149;119;118;28,5;55,8;14,0;1,7;33;20,8;11,0;48.840097;2.547002
292377;LE BIJOU;ILE-DE-FRANCE;PLACE DE LA LIBERATION;93051;Noisy-le-Grand;68511;93;00851;Paris;10909327;02-Petite Couronne;3;416;32;3 151;60 006;47 265;27,0;De 50 à 80 000 entrées;VILLE DE NOISY LE GRAND                                         ;;OUI;C;RDJPPR;FIXE;NON;B;133;85;52;46,8;31,6;16,2;5,5;68;76,5;67,8;48.849023;2.552482
298964;SALLE ARAGON;ILE-DE-FRANCE;1 PLACE DU FER A CHEVAL;94054;Orly;24030;94;00851;Paris;10909327;02-Petite Couronne;1;388;30;320;8 926;7 287;22,5;De 5 à 10 000 entrées;COMMUNE D'ORLY;;NON;NON;;FIXE;NON;B;105;75;1;40,0;33,5;22,9;3,6;34;48,3;22,5;48.742445;2.395558
299122;CENTRE CULTUREL  ORMESSON;ILE-DE-FRANCE;22 AV WLADIMIR D ORMESSON;94055;Ormesson-sur-Marne;10492;94;00851;Paris;10909327;02-Petite Couronne;1;358;7;19;1 299;1 951;-33,4;Moins de 2000 entrées;COMMUNE D ORMESSON SUR MARNE;;NON;NON;;FIXE;NON;B;8;0;0;0,0;0,0;0,0;0,0;0;0,0;0,0;48.786098;2.544935
299572;CINEMA JACQUES TATI;ILE-DE-FRANCE;14 AVENUE SAINT LAURENT;91471;Orsay;16179;91;00851;Paris;10909327;03-Grande couronne;3;339;32;2 244;32 868;24 630;33,4;De 30 à 40 000 entrées;ASSOCIATION MJC MAISON DES JEUNES ET DE LA CULTURE D' ORSAY;MICROMEGAS (Clochard);OUI;C;RDJPPR;FIXE;NON;B;218;149;42;60,3;18,1;14,9;6,7;108;80,4;77,1;48.698781;2.189727
301781;LE PIERRE BRASSEUR;ILE-DE-FRANCE;103 AV DU GENERAL DE GAULLE;77350;Ozoir-la-Ferrière;20383;77;00851;Paris;10909327;03-Grande couronne;1;171;32;283;5 042;4 589;9,9;De 5 à 10 000 entrées;ASS PIERRE BRASSEUR;;NON;NON;;FIXE;NON;B;69;60;0;73,6;17,2;9,1;0,0;19;30,0;28,6;48.762604;2.664715
302485;CINEPAL;ILE-DE-FRANCE;AVENUE DU 8 MAI 1945;91477;Palaiseau;35923;91;00851;Paris;10909327;03-Grande couronne;4;545;32;3 309;76 254;53 858;41,6;De 50 à 80 000 entrées;NORD OUEST EXPLOITATION CINEMAS IDF;NOE (Patry);OUI;C;RDJPPR;FIXE;NON;B;145;114;53;44,5;44,1;9,3;2,1;55;33,9;25,6;48.71031;2.243459
303281;CINE 104;ILE-DE-FRANCE;104 AV JEAN LOLIVE;93055;Pantin;59237;93;00851;Paris;10909327;02-Petite Couronne;3;457;29;1 908;50 136;35 802;40,0;De 50 à 80 000 entrées;COMMUNE DE PANTIN;;OUI;C;RDJPPR;FIXE;NON;B;159;120;42;58,9;21,3;15,1;4,7;101;85,9;78,6;48.89218;2.408907
303445;CINEMA L'AVANT-SCENE;ILE-DE-FRANCE;1, RUE ALSACE-LORRAINE;91479;Paray-Vieille-Poste;7561;91;00851;Paris;10909327;03-Grande couronne;1;314;28;99;2 567;2 420;6,1;De 2 à 5 000 entrées;COMMUNE DE PARAY VIEILLE POSTE;;NON;NON;;FIXE;NON;B;70;59;0;49,0;46,5;4,0;0,6;25;37,2;11,3;48.712693;2.363281
305402;ESPACE DES ARTS;ILE-DE-FRANCE;PLACE CHARLES DE GAULLE;93057;Les Pavillons-sous-Bois;24057;93;00851;Paris;10909327;02-Petite Couronne;1;329;30;712;24 493;19 221;27,4;De 20 à 30 000 entrées;ESPACE DES ARTS;GPCI (Vintrou);OUI;C;JP;FIXE;NON;B;143;120;1;46,9;37,4;15,6;0,0;54;39,9;28,5;48.903037;2.507379
307692;CENTRE DES BORDS DE MARNE;ILE-DE-FRANCE;2 RUE DE LA PRAIRIE;94058;Le Perreux-sur-Marne;34097;94;00851;Paris;10909327;02-Petite Couronne;1;198;26;620;20 962;17 904;17,1;De 20 à 30 000 entrées;CENTRE DES BORDS DE MARNE;GPCI (Vintrou);OUI;C;;FIXE;NON;B;114;87;14;72,8;17,6;9,5;0,0;48;56,3;45,2;48.84694;2.509968
313013;UGC PLAISIR;ILE-DE-FRANCE;1170 AVENUE DE SAINT GERMAIN;78490;PLAISIR;31365;78;00851;Paris;10909327;03-Grande couronne;9;1279;32;9 205;142 657;0;#DIV/0!;De 100 à 150 000 entrées;UGC CINE CITE;UGC;NON;NON;;FIXE;OUI;B;132;102;102;24,7;59,6;14,9;0,7;17;12,8;6,8;48.827362;1.966638
314413;CINEMA GERARD PHILIPE;ILE-DE-FRANCE;1 PLACE JANE RHODES;92060;Le Plessis-Robinson;29819;92;00851;Paris;10909327;02-Petite Couronne;2;400;32;1 242;23 166;19 555;18,5;De 20 à 30 000 entrées;COMMUNE DU PLESSIS ROBINSON;;OUI;C;JP;FIXE;NON;B;120;77;14;59,5;23,0;16,5;1,0;29;33,9;22,2;48.777607;2.254424
314451;ESPACE PAUL VALERY;ILE-DE-FRANCE;72 ET 74 AVENUE ARDOUIN;94059;Le Plessis-Trévise;20104;94;00851;Paris;10909327;02-Petite Couronne;1;340;32;182;3 241;2 949;9,9;De 2 à 5 000 entrées;RENCONTRES ANIMATIONS PLESSEENNES;;NON;NON;;FIXE;NON;B;37;32;0;80,0;13,0;7,0;0,0;14;42,0;40,3;48.80535;2.578145
317291;C 2 L;ILE-DE-FRANCE;18 RUE CHARLES DE GAULLE;78498;Poissy;38606;78;00851;Paris;10909327;03-Grande couronne;5;973;32;4 163;61 212;43 459;40,8;De 50 à 80 000 entrées;C2L POISSY;UGC;NON;NON;;FIXE;NON;B;84;74;64;32,0;53,5;13,6;0,9;13;11,9;8,8;48.92287;2.029616
318801;APOLLO;ILE-DE-FRANCE;62 AVENUE DE LA REPUBLIQUE;77373;Pontault-Combault;38076;77;00851;Paris;10909327;03-Grande couronne;2;295;32;1 796;25 235;17 415;44,9;De 20 à 30 000 entrées;ASSOCIATION APOLLO;;OUI;C;JP;FIXE;NON;B;162;139;19;40,9;44,8;13,7;0,6;65;35,1;20,3;48.803412;2.611316
320532;ROYAL UTOPIA;ILE-DE-FRANCE;14 RUE ALEXANDRE PRACHAY;95500;Pontoise;31992;95;00851;Paris;10909327;03-Grande couronne;1;272;22;167;6 672;7 476;-10,8;De 5 à 10 000 entrées;ASSOCIATION CINEMAS DES DEUX RIVES;;OUI;C;;FIXE;NON;B;62;55;32;66,7;19,2;12,3;1,9;46;80,7;86,3;49.049188;2.099047
326550;LE REXY;ILE-DE-FRANCE;QUARTIER DELORT;77379;Provins;12293;77;77303;Provins;13597;03-Grande couronne;4;570;32;4 035;45 341;26 986;68,0;De 40 à 50 000 entrées;APP;UGC;NON;NON;;FIXE;NON;C;131;108;64;33,3;53,9;11,8;1,0;39;15,3;7,6;48.559158;3.304398
327945;UGC CINE CITE LA DEFENSE;ILE-DE-FRANCE;LE DOME;92062;Puteaux;45118;92;00851;Paris;10909327;02-Petite Couronne;16;3645;32;17 923;570 610;440 235;29,6;De 450 à 700 000 entrées;UGC CINE CITE;UGC;NON;NON;;FIXE;OUI;B;278;205;191;30,4;52,2;15,6;1,8;98;33,4;18,5;48.876233;2.242749
327961;LE CENTRAL;ILE-DE-FRANCE;134 RUE DE LA REPUBLIQUE;92062;Puteaux;45118;92;00851;Paris;10909327;02-Petite Couronne;2;480;29;1 490;25 296;16 930;49,4;De 20 à 30 000 entrées;VILLE DE PUTEAUX                                                ;UGC;NON;NON;;FIXE;NON;B;66;46;22;28,2;55,3;16,3;0,2;10;19,7;11,3;48.885137;2.239127
338332;CINOCHE;ILE-DE-FRANCE;ALLEE JEAN WIENER;91521;Ris-Orangis;29769;91;00851;Paris;10909327;03-Grande couronne;3;706;32;2 570;31 580;25 641;23,2;De 30 à 40 000 entrées;ASSOCIATION GESTION SALLE ROBERT DESNOS;MICROMEGAS (Clochard);OUI;C;RDJPPR;FIXE;NON;B;176;129;49;55,1;22,7;19,1;3,1;86;70,1;61,9;48.65291;2.418053
338335;CINOCHE 4;ILE-DE-FRANCE;AVENUE DE LA LIBERATION;91521;Ris-Orangis;29769;91;00851;Paris;10909327;03-Grande couronne;1;291;19;479;3 322;7 048;-52,9;De 2 à 5 000 entrées;ASSOCIATION GESTION SALLE ROBERT DESNOS;MICROMEGAS (Clochard);OUI;C;;FIXE;NON;B;46;42;10;62,0;22,6;14,1;1,3;23;61,0;59,8;48.651395;2.414242
341321;LA GRANGE;ILE-DE-FRANCE;FERME DE L'AYAU;77390;Roissy-en-Brie;22916;77;00851;Paris;10909327;03-Grande couronne;1;192;32;432;6 912;5 353;29,1;De 5 à 10 000 entrées;COMMUNE DE ROISSY EN BRIE;GPCI (Vintrou);NON;NON;;FIXE;NON;B;96;83;1;25,5;59,4;13,6;1,5;19;17,9;8,3;48.793178;2.648662
341652;LE TRIANON;ILE-DE-FRANCE;PL CARNOT ET 1 RUE ETIENNE DOLET;93063;Romainville;28615;93;00851;Paris;10909327;02-Petite Couronne;1;436;30;863;35 814;25 803;38,8;De 30 à 40 000 entrées;ASSOCIATION COMITE GESTION CINEMA TRIANON;;OUI;C;RDJPPR;FIXE;NON;B;172;112;7;71,4;14,7;11,4;2,5;81;67,7;56,4;48.883869;2.44086
343750;UGC CINE CITE ROSNY;ILE-DE-FRANCE;16 RUE CONRAD ADENAUER;93064;Rosny-sous-Bois;46220;93;00851;Paris;10909327;02-Petite Couronne;15;3344;32;16 801;400 334;341 565;17,2;De 300 à 450 000 entrées;UGC CINE CITE ILE DE FRANCE;UGC;NON;NON;;FIXE;OUI;B;205;170;170;22,3;60,9;15,6;1,2;58;20,1;7,0;48.880702;2.480345
343762;ESPACE GEORGES SIMENON;ILE-DE-FRANCE;PLACE CARNOT;93064;Rosny-sous-Bois;46220;93;00851;Paris;10909327;02-Petite Couronne;1;229;20;167;4 888;6 360;-23,1;De 2 à 5 000 entrées;COMMUNE DE ROSNY SOUS BOIS;;OUI;C;;FIXE;NON;B;68;51;1;47,2;21,2;30,8;0,8;41;82,7;66,2;48.873327;2.482728
347162;ARIEL;ILE-DE-FRANCE;99 AVENUE PAUL DOUMER;92063;Rueil-Malmaison;79455;92;00851;Paris;10909327;02-Petite Couronne;3;689;30;2 419;46 739;41 642;12,2;De 40 à 50 000 entrées;CINE RUEIL;UGC;OUI;C;;FIXE;NON;B;81;67;48;72,4;18,3;8,6;0,6;36;52,8;44,0;48.879844;2.180852
347175;ARIEL HAUTS DE RUEIL;ILE-DE-FRANCE;59 AVENUE DE FOUILLEUSE;92063;Rueil-Malmaison;79455;92;00851;Paris;10909327;02-Petite Couronne;3;688;29;2 142;63 062;40 489;55,8;De 50 à 80 000 entrées;SOCIETE D'ECONOMIE MIXTE THEATRE ANDRE MALRAUX                  ;UGC;NON;NON;;FIXE;NON;B;65;51;33;26,5;55,0;18,5;0,0;7;6,0;6,6;48.862565;2.194794
353531;C2L CIN'HOCHE;ILE-DE-FRANCE;6 RUE HOCHE;78586;Sartrouville;52716;78;00851;Paris;10909327;03-Grande couronne;5;436;32;4 575;61 613;43 158;42,8;De 50 à 80 000 entrées;SERTEC;UGC;NON;NON;;FIXE;NON;B;104;70;66;37,4;48,6;14,0;0,0;11;13,3;8,9;48.937892;2.159419
356431;ESPACE PREVERT;ILE-DE-FRANCE;QUARTIER DU PLESSIS LE ROI;77445;Savigny-le-Temple;30016;77;00851;Paris;10909327;03-Grande couronne;1;390;28;391;6 121;7 625;-19,7;De 5 à 10 000 entrées;ESPACE PREVERT ANIMATION;GPCI (Vintrou);OUI;C;;FIXE;NON;B;98;81;0;53,3;34,7;11,9;0,1;28;29,3;26,7;48.57649;2.579118
356871;TRIANON;ILE-DE-FRANCE;3 BIS RUE MARGUERITE RENAUDIN;92071;Sceaux;19975;92;00851;Paris;10909327;02-Petite Couronne;1;270;32;694;29 483;25 507;15,6;De 20 à 30 000 entrées;LES GEMEAUX SCENE NATIONALE;;OUI;C;RDJPPR;FIXE;NON;B;135;100;7;67,4;15,4;14,3;2,8;70;74,3;63,6;48.777656;2.292628
362414;CINE SEL;ILE-DE-FRANCE;47 GRANDE RUE;92072;Sèvres;23638;92;00851;Paris;10909327;02-Petite Couronne;1;380;27;228;10 518;9 490;10,8;De 10 à 20 000 entrées;ETABLISSEMENT PUBLIC DE COOPERATION CULTURELLE SEVRES ESPACE LOI;GPCI (Vintrou);OUI;C;;FIXE;NON;B;96;78;0;62,1;16,8;18,5;2,5;46;59,1;49,6;48.82472689999999;2.21509930000002
368403;SALLE PAUL ELUARD;ILE-DE-FRANCE;PLACE MARCEL POINTET;93072;Stains;38743;93;00851;Paris;10909327;02-Petite Couronne;1;699;16;93;5 187;5 833;-11,1;De 5 à 10 000 entrées;COMITE GESTION CENTRE LOISIRS CULTURE PAUL ELUARD;;NON;NON;;FIXE;NON;B;39;24;0;7,3;72,9;19,9;0,0;3;10,5;2,9;48.951678;2.381372
370073;ESPACE JEAN-MARIE POIRIER;ILE-DE-FRANCE;ESPLANADE DU 18 JUIN 1940;94071;Sucy-en-Brie;27223;94;00851;Paris;10909327;02-Petite Couronne;1;205;25;194;7 840;9 424;-16,8;De 5 à 10 000 entrées;COMMUNE DE SUCY EN BRIE;GPCI (Vintrou);NON;NON;;FIXE;NON;B;76;64;0;72,9;16,5;10,3;0,4;31;46,5;39,6;48.772452;2.512597
370411;LE CAPITOLE;ILE-DE-FRANCE;3 RUE LEDRU ROLLIN;92073;Suresnes;49257;92;00851;Paris;10909327;02-Petite Couronne;4;644;32;4 495;68 394;46 842;46,0;De 50 à 80 000 entrées;ESPACE CINEMA;;OUI;C;JP;FIXE;NON;B;164;114;91;48,0;35,4;15,8;0,8;60;38,1;27,8;48.871363;2.229109
374021;LE CRATERE;ILE-DE-FRANCE;RUE JEAN MOULIN;78537;Saint-Arnoult-en-Yvelines;6047;78;78202;Saint-Arnoult-en-Yvelines;6047;03-Grande couronne;1;401;30;557;14 520;12 113;19,9;De 10 à 20 000 entrées;COMMUNE DE SAINT ARNOULT EN YVELINES;MICROMEGAS (Clochard);OUI;E;JP;FIXE;NON;I;75;68;4;40,7;44,6;13,2;1,5;22;23,6;18,0;48.571134;1.933453
379671;LES TROIS PIERROTS;ILE-DE-FRANCE;6-8 RUE DU MONT VALERIEN;92064;Saint-Cloud;30636;92;00851;Paris;10909327;02-Petite Couronne;2;466;28;843;19 156;15 346;24,8;De 10 à 20 000 entrées;COMMUNE DE SAINT CLOUD;GPCI (Vintrou);OUI;C;;FIXE;NON;B;126;101;45;64,0;17,9;16,1;2,0;63;63,4;53,6;48.852362;2.216385
381152;LES YEUX D ELSA;ILE-DE-FRANCE;11 BIS AVE JEAN JAURES;78545;Saint-Cyr-l'École;19654;78;00851;Paris;10909327;03-Grande couronne;1;168;23;291;5 123;7 170;-28,5;De 5 à 10 000 entrées;CENTRE D'ACTION CULTURELLE;MICROMEGAS (Clochard);OUI;C;JPPR;FIXE;NON;B;79;67;1;50,8;27,2;20,9;1,1;36;52,6;34,7;48.799763;2.067533
381912;ECRAN;ILE-DE-FRANCE;14 PASSAGE DE L ACQUEDUC;93066;Saint-Denis;112982;93;00851;Paris;10909327;02-Petite Couronne;2;398;32;1 695;36 247;30 585;18,5;De 30 à 40 000 entrées;CINEMA L'ECRAN;;OUI;C;RDJPPR;FIXE;NON;B;182;139;56;58,0;22,4;16,5;3,2;117;87,7;78,8;48.93659;2.358747
381941;GAUMONT;ILE-DE-FRANCE;8 RUE DU MONDIAL 1998;93066;Saint-Denis;112982;93;00851;Paris;10909327;02-Petite Couronne;9;1513;32;8 098;114 951;71 664;60,4;De 100 à 150 000 entrées;GAUMONT;PATHE GAUMONT;NON;NON;;FIXE;OUI;B;131;83;74;8,6;70,7;14,8;5,9;4;2,7;1,5;48.925395;2.363117
384792;ESPACE CULTUREL LES 26 COULEURS;ILE-DE-FRANCE;IMPASSE PASTEUR;77407;Saint-Fargeau-Ponthierry;14233;77;00851;Paris;10909327;03-Grande couronne;1;222;32;413;4 534;3 543;28,0;De 2 à 5 000 entrées;VILLE DE SAINT FARGEAU PONTHIERRY                               ;;OUI;C;;FIXE;NON;B;120;98;1;68,2;23,6;7,8;0,4;53;51,4;48,2;48.535934;2.547053
386873;LES 4 PERRAY;ILE-DE-FRANCE;44-46 AVENUE GABRIEL PERI;91549;Sainte-Geneviève-des-Bois;36325;91;00851;Paris;10909327;03-Grande couronne;3;452;4;307;4 817;0;#DIV/0!;De 2 à 5 000 entrées;CINEMAS SAINTE-GENEVIEVE-DES-BOIS;;NON;NON;;FIXE;NON;B;22;22;11;20,3;73,4;6,3;0,0;7;14,3;4,4;48.647173;2.327732
388971;C 2 L;ILE-DE-FRANCE;25/27/29 RUE DU VIEUX MARCHE;78551;Saint-Germain-en-Laye;46599;78;00851;Paris;10909327;03-Grande couronne;5;742;32;4 323;73 467;47 975;53,1;De 50 à 80 000 entrées;SOCIETE ETABLISSEMENTS JOUSSEAUME;UGC;OUI;C;;FIXE;NON;B;121;82;65;47,8;32,8;19,3;0,0;35;33,2;25,7;48.896605;2.090977
390452;LES TOILES OLYMPIC;ILE-DE-FRANCE;PLACE FRANCOIS TRUFFAUT;95555;Saint-Gratien;21060;95;00851;Paris;10909327;03-Grande couronne;3;371;29;2 083;29 894;25 199;18,6;De 20 à 30 000 entrées;ASSOCIATION OFFICE CULTUREL DE SAINT GRATIEN;;OUI;C;RDJPPR;FIXE;NON;B;118;80;47;66,5;8,8;21,0;3,6;74;95,9;92,7;48.971269;2.274468
404603;LE LIDO;ILE-DE-FRANCE;70 AV DE LA REPUBLIQUE;94068;Saint-Maur-des-Fossés;76214;94;00851;Paris;10909327;02-Petite Couronne;1;425;32;921;22 365;23 639;-5,4;De 20 à 30 000 entrées;ATELIER THEATRE DE LA CITE;;OUI;C;RDJPPR;FIXE;NON;B;159;111;45;73,1;14,0;8,2;4,6;92;83,4;79,2;48.798427;2.485821
404612;LES 4 DELTA 4;ILE-DE-FRANCE;81 BIS AVENUE DU BAC;94068;Saint-Maur-des-Fossés;76214;94;00851;Paris;10909327;02-Petite Couronne;4;886;32;3 438;54 665;33 881;61,3;De 50 à 80 000 entrées;PARAFRANCE COMMUNICATION;;OUI;C;JP;FIXE;NON;B;118;86;60;47,8;39,2;12,4;0,6;41;30,6;26,2;48.793451;2.514771
406812;CINES CARNE;ILE-DE-FRANCE;PLACE MARCEL CARNE;91570;Saint-Michel-sur-Orge;20110;91;00851;Paris;10909327;03-Grande couronne;3;496;31;2 060;32 429;25 333;28,0;De 30 à 40 000 entrées;ESPACE MARCEL CARNE;MICROMEGAS (Clochard);OUI;C;RDJPPR;FIXE;NON;B;212;174;33;72,7;11,9;11,3;4,0;138;84,4;75,9;48.637713;2.320768
408323;UTOPIA;ILE-DE-FRANCE;1 PLACE MENDES-FRANCE;95572;Saint-Ouen-l'Aumône;24498;95;00851;Paris;10909327;03-Grande couronne;5;513;30;4 515;66 499;59 829;11,1;De 50 à 80 000 entrées;ASSOCIATION CINEMAS DES DEUX RIVES;;OUI;C;RDJPPR;FIXE;NON;B;234;145;104;67,2;14,8;12,3;5,7;121;84,0;80,0;49.044334;2.106823
408441;ESPACE 1789;ILE-DE-FRANCE;7/9 RUE DES ROSIERS;93070;Saint-Ouen;50797;93;00851;Paris;10909327;02-Petite Couronne;2;668;30;1 700;34 095;27 621;23,4;De 30 à 40 000 entrées;CENTRE AUDONIEN ET FRANCILIEN D'ART ET DE CULTURE;;OUI;C;RDJPPR;FIXE;NON;B;147;102;30;54,2;30,1;13,3;2,4;83;83,2;69,8;48.904144;2.339193
422871;STUDIO CINE;ILE-DE-FRANCE;207 RUE DE PARIS;95607;Taverny;26765;95;00851;Paris;10909327;03-Grande couronne;2;329;32;1 779;14 308;9 939;44,0;De 10 à 20 000 entrées;STUDIO 207;;NON;NON;;FIXE;NON;B;139;115;19;53,5;33,9;11,8;0,7;38;25,6;19,8;49.026312;2.224754
425503;PATHE BELLE EPINE;ILE-DE-FRANCE;CENTRE COMMERCIAL BELLE EPINE;94073;Thiais;30028;94;00851;Paris;10909327;02-Petite Couronne;16;3679;32;17 635;589 825;428 429;37,7;De 450 à 700 000 entrées;LES CINEMAS PATHE GAUMONT;PATHE GAUMONT;NON;NON;;FIXE;OUI;B;168;149;148;20,1;62,6;16,0;1,2;34;11,7;5,4;48.756508;2.371928
429132;MEGA CGR;ILE-DE-FRANCE;PROMENADE DU 7ÈME ART;77468;Torcy;22467;77;00851;Paris;10909327;03-Grande couronne;16;2891;32;19 538;356 176;231 974;53,5;De 300 à 450 000 entrées;MAUBIM                                                          ;LES FILMS DE LA ROCHELLE;NON;NON;;FIXE;OUI;B;232;193;195;23,3;59,4;14,1;3,1;66;19,9;7,3;48.840592;2.654959
432832;CINEMA LE GRENIER A SEL;ILE-DE-FRANCE;PLACE DU 8 MAI 1945;78621;Trappes;32236;78;00851;Paris;10909327;03-Grande couronne;1;218;29;610;9 568;9 267;3,2;De 5 à 10 000 entrées;COMMUNE DE TRAPPES;VEO (Baron);OUI;C;JP;FIXE;NON;B;122;99;2;57,3;25,3;14,8;2,6;61;58,0;54,0;48.780183;1.992423
433972;JACQUES TATI;ILE-DE-FRANCE;29 BIS AV CHARLES DE GAULLE;93073;Tremblay-en-France;36389;93;00851;Paris;10909327;02-Petite Couronne;3;524;32;2 574;33 776;28 336;19,2;De 30 à 40 000 entrées;ASSOCIATION TREMBLAYSIENNE POUR LE CINEMA;;OUI;C;RDJPPR;FIXE;NON;B;172;110;46;32,3;51,8;14,6;1,4;80;61,9;37,1;48.99649;2.550261
433975;PATHE;ILE-DE-FRANCE;RUE DES BUISSONS;93073;Tremblay-en-France;36389;93;00851;Paris;10909327;02-Petite Couronne;12;2380;32;11 986;363 971;222 687;63,4;De 300 à 450 000 entrées;PATHE AEROVILLE;PATHE GAUMONT;NON;NON;;FIXE;OUI;B;121;101;98;15,0;67,2;16,4;1,5;9;5,0;2,8;48.991044;2.524032
437561;STUDIO DES CHAMPS LASNIERS;ILE-DE-FRANCE;AVENUE DU BERRY;91692;Les Ulis;24911;91;00851;Paris;10909327;03-Grande couronne;1;210;28;430;8 973;6 776;32,4;De 5 à 10 000 entrées;COMMUNE DES ULIS;;NON;NON;;FIXE;NON;B;103;79;0;59,7;28,3;10,7;1,3;40;51,6;41,8;48.682507;2.169714
437562;UGC LES ULIS;ILE-DE-FRANCE;CENTRE COMMERCIAL LES ULIS 2;91692;Les Ulis;24911;91;00851;Paris;10909327;03-Grande couronne;4;600;32;3 268;28 615;21 518;33,0;De 20 à 30 000 entrées;UGC SAS;UGC;NON;NON;;FIXE;NON;B;56;52;51;30,2;58,0;11,8;0,0;5;11,1;7,3;48.675884;2.175597
439271;LES VARIETES;ILE-DE-FRANCE;72 RUE DE CHELLES;77479;Vaires-sur-Marne;13513;77;00851;Paris;10909327;03-Grande couronne;1;311;26;214;4 203;3 663;14,7;De 2 à 5 000 entrées;ASSOCIATION VAIROISE D ANIMATION CULTURELLE;;NON;NON;;FIXE;NON;B;58;50;0;79,3;8,3;12,4;0,0;22;42,2;33,6;48.874168;2.632366
442002;LE VANVES;ILE-DE-FRANCE;12 RUE SADI CARNOT;92075;Vanves;27744;92;00851;Paris;10909327;02-Petite Couronne;1;192;27;357;9 992;7 824;27,7;De 5 à 10 000 entrées;COMMUNE DE VANVES;;OUI;C;;FIXE;NON;B;109;88;1;63,5;23,1;10,1;3,4;61;72,6;60,0;48.821779;2.287439
442370;CINEMA CONFLUENCES VARENNES;ILE-DE-FRANCE;PETIT FOSSARD;77482;Varennes-sur-Seine;3612;77;77403;Montereau-Fault-Yonne;29860;03-Grande couronne;9;1603;32;8 591;126 521;87 938;43,9;De 100 à 150 000 entrées;CINE MONTEREAU POINT COM;Aubry ;NON;NON;;FIXE;OUI;B;179;152;143;32,8;52,5;13,4;1,3;40;15,2;6,4;48.367677;2.957289
443601;LE NORMANDY;ILE-DE-FRANCE;72 BOULEVARD DE LA REPUBLIQUE;92076;Vaucresson;8985;92;00851;Paris;10909327;02-Petite Couronne;2;295;32;1 548;20 029;13 791;45,2;De 20 à 30 000 entrées;LES VRAIS INSTANTS DE L  IMAGE;UGC;OUI;C;;FIXE;NON;B;76;50;33;65,5;14,3;19,8;0,4;29;57,1;47,8;48.837881;2.157499
444330;L'ANTARES;ILE-DE-FRANCE;1, PLACE DU COEUR BATTANT;95637;Vauréal;16789;95;00851;Paris;10909327;03-Grande couronne;2;217;30;1 417;18 518;13 086;41,5;De 10 à 20 000 entrées;COMMUNE DE VAUREAL;;NON;NON;;FIXE;NON;B;114;93;17;15,3;62,0;21,5;1,2;30;15,1;15,6;49.030119;2.021182
444791;LA GRANGE;ILE-DE-FRANCE;RUE AMBROISE PRO;77487;Vaux-le-Pénil;11141;77;00851;Paris;10909327;03-Grande couronne;1;268;29;492;8 336;7 332;13,7;De 5 à 10 000 entrées;COMMUNE DE VAUX LE PENIL;CINEODE (Défossé);OUI;C;;FIXE;NON;B;115;97;12;75,3;16,9;7,3;0,5;46;33,9;38,1;48.527795;2.689584
448802;ESPACE MAURICE BEJART;ILE-DE-FRANCE;3 BLVD ANDRE MALRAUX;78642;Verneuil-sur-Seine;16353;78;00851;Paris;10909327;03-Grande couronne;1;312;18;283;9 479;9 886;-4,1;De 5 à 10 000 entrées;COMMUNE DE VERNEUIL SUR SEINE;GPCI (Vintrou);NON;NON;;FIXE;NON;B;75;60;1;63,8;22,6;13,3;0,3;31;43,5;34,3;48.979213;1.97461
449542;ESPACE BERNARD MANTIENNE;ILE-DE-FRANCE;VOIE DE L'AULNE;91645;Verrières-le-Buisson;15301;91;00851;Paris;10909327;03-Grande couronne;2;491;30;1 049;16 808;13 621;23,4;De 10 à 20 000 entrées;COMMUNE DE VERRIERES LE BUISSON;;OUI;C;JP;FIXE;NON;B;166;114;8;67,0;21,1;11,2;0,7;73;59,7;46,6;48.754993;2.269638
449661;UGC CYRANO;ILE-DE-FRANCE;7 RUE RAMEAU;78646;Versailles;87253;78;00851;Paris;10909327;03-Grande couronne;8;1590;32;6 969;114 196;82 214;38,9;De 100 à 150 000 entrées;SOCIETE NOUVELLE DE GESTION CYRANO;UGC;NON;NON;;FIXE;OUI;B;179;123;106;52,1;30,5;17,4;0,0;50;25,3;21,6;48.807883;2.130901
449702;UGC ROXANE;ILE-DE-FRANCE;6 RUE ST SIMON;78646;Versailles;87253;78;00851;Paris;10909327;03-Grande couronne;4;769;32;3 503;37 368;34 761;7,5;De 30 à 40 000 entrées;ROXANE;UGC;OUI;C;RDJPPR;FIXE;NON;B;160;121;75;61,2;14,5;12,9;11,5;111;94,5;94,2;48.803954;2.133847
450503;CINEMA JEAN MARAIS;ILE-DE-FRANCE;59 BD CARNOT;78650;Le Vésinet;16421;78;00851;Paris;10909327;03-Grande couronne;1;199;27;382;12 513;10 478;19,4;De 10 à 20 000 entrées;ASSOCIATION DU CENTRE DES ARTS ET LOISIRS DU VESINET;GPCI (Vintrou);OUI;C;;FIXE;NON;B;93;77;8;63,0;17,3;16,3;3,4;55;68,5;57,7;48.893988;2.134326
455770;LE COLOMBIER;ILE-DE-FRANCE;PLACE CHARLES DE GAULLE;92077;Ville-d'Avray;11345;92;00851;Paris;10909327;02-Petite Couronne;1;279;26;178;2 961;4 026;-26,5;De 2 à 5 000 entrées;COMMUNE D'AVRAY;GPCI (Vintrou);OUI;C;;FIXE;NON;B;120;111;0;58,2;24,7;13,6;3,5;64;54,0;45,7;48.824654;2.18397
456762;CINEMA D ART ROMAIN ROLLAND;ILE-DE-FRANCE;18 RUE EUGENE VARLIN;94076;Villejuif;55212;94;00851;Paris;10909327;02-Petite Couronne;1;616;27;176;8 847;8 832;0,2;De 5 à 10 000 entrées;THEATRE ROMAIN ROLLAND;;NON;NON;;FIXE;NON;B;70;60;0;62,5;19,9;17,1;0,5;34;57,0;54,4;48.793428;2.363199
457861;ANDRE MALRAUX;ILE-DE-FRANCE;28 AVENUE DE VERDUN;92078;Villeneuve-la-Garenne;24112;92;00851;Paris;10909327;02-Petite Couronne;1;212;21;153;3 632;3 643;-0,3;De 2 à 5 000 entrées;ASSOCIATION POUR LE CINEMA SALLE ANDRE MALRAUX;;NON;NON;;FIXE;NON;B;38;21;2;43,9;20,0;36,0;0,0;10;52,1;40,5;48.935662;2.333275
457983;ESPACE CULTUREL;ILE-DE-FRANCE;56BIS AVENUE CARNOT;94077;Villeneuve-le-Roi;21308;94;00851;Paris;10909327;02-Petite Couronne;1;448;7;11;1 420;1 189;19,4;Moins de 2000 entrées;COMMUNE DE VILLENEUVE LE ROI;;NON;NON;;FIXE;NON;B;8;7;0;19,9;75,0;5,1;0,0;1;10,0;1,0;48.735355;2.416829
461663;LE CASINO;ILE-DE-FRANCE;13 RUE GUILLAUME BUDE;94079;Villiers-sur-Marne;28709;94;00851;Paris;10909327;02-Petite Couronne;1;220;30;639;10 379;8 740;18,8;De 10 à 20 000 entrées;VILLE DE VILLIERS SUR MARNE                                     ;GPCI (Vintrou);OUI;C;;FIXE;NON;B;137;114;2;58,0;25,8;15,0;1,2;52;41,8;32,4;48.826124;2.542402
462304;CINEMA SORANO;ILE-DE-FRANCE;1 RUE CHARLES PATHE;94080;Vincennes;50083;94;00851;Paris;10909327;02-Petite Couronne;1;204;2;2;67;781;-91,4;Moins de 2000 entrées;ASSOCIATION CULTURELLE VINCENNES PROMO CINEMA;;NON;NON;;FIXE;NON;B;2;0;0;0,0;0,0;0,0;0,0;0;0,0;0,0;48.849453;2.437319
462321;LE VINCENNES;ILE-DE-FRANCE;30 AV DE PARIS;94080;Vincennes;50083;94;00851;Paris;10909327;02-Petite Couronne;4;481;32;4 102;85 634;63 759;34,3;De 80 à 100 000 entrées;LE VINCENNES;;OUI;C;JPPR;FIXE;NON;B;166;89;76;56,0;25,9;15,2;2,9;59;54,4;47,0;48.845095;2.434268
463353;CALYPSO A;ILE-DE-FRANCE;38 RUE VICTOR BASCH;91687;Viry-Châtillon;30918;91;00851;Paris;10909327;03-Grande couronne;3;551;32;1 982;38 867;25 049;55,2;De 30 à 40 000 entrées;SAEM DE RENOVATION URBAINE & RESTAURATION IMMOBIL VIRY CHATILLON;MICROMEGAS (Clochard);OUI;C;JP;FIXE;NON;B;213;149;29;38,5;48,8;11,8;0,9;83;38,8;24,5;48.681815;2.379391
463931;3 CINES ROBESPIERRE;ILE-DE-FRANCE;19 AVENUE MAXIMILIEN ROBESPIERRE;94081;Vitry-sur-Seine;95105;94;00851;Paris;10909327;02-Petite Couronne;3;509;32;2 775;34 208;25 986;31,6;De 30 à 40 000 entrées;COMMUNE DE VITRY SUR SEINE;;OUI;C;RDJPPR;FIXE;NON;B;221;161;21;39,4;49,8;9,1;1,7;95;43,3;25,4;48.790948;2.388152
469245;CINEMA PARADISO;ILE-DE-FRANCE;2 RUE MARC SANGNIER;91691;Yerres;29546;91;00851;Paris;10909327;03-Grande couronne;1;214;32;683;13 657;10 983;24,3;De 10 à 20 000 entrées;STUDIO 43;GPCI (Vintrou);OUI;C;;FIXE;NON;B;120;91;10;62,4;25,0;11,8;0,8;41;40,5;35,1;48.714932;2.489765
575001;MEGARAMA;ILE-DE-FRANCE;44 AVENUE DE LA LONGUE BERTRANE;92078;Villeneuve-la-Garenne;24112;92;00851;Paris;10909327;02-Petite Couronne;18;3728;32;17 665;234 993;173 415;35,5;De 200 à 300 000 entrées;LES IMAGES;AGORA;NON;NON;;FIXE;OUI;B;165;147;148;19,1;62,9;16,1;1,9;31;10,7;4,6;48.930677;2.320895
718750;KINEPOLIS BRETIGNY;ILE-DE-FRANCE;5 RUE MICHELE MORGAN;91103;Brétigny-sur-Orge;27193;91;00851;Paris;10909327;03-Grande couronne;10;1508;32;10 033;262 058;161 686;62,1;De 200 à 300 000 entrées;KINEPOLIS PROSPECTION;KINEPOLIS (Duquenne);NON;NON;;FIXE;OUI;B;166;141;138;28,9;55,8;13,9;1,5;23;11,1;6,3;48.57924680000001;2.2996356999999534
720300;UGC CINE CITE;ILE-DE-FRANCE;CENTRE COMMERCIAL CRETEIL SOLEIL;94028;Créteil;92737;94;00851;Paris;10909327;02-Petite Couronne;18;3710;32;18 216;348 354;280 683;24,1;De 300 à 450 000 entrées;UGC CINE CITE;UGC;NON;NON;;FIXE;OUI;B;295;216;201;29,2;55,1;13,6;2,1;98;29,5;12,4;48.797186;2.469391
720400;UGC CINE CITE SQY OUEST;ILE-DE-FRANCE;1 AV. DE LA SOURCE DE LA BIEVRE;78423;Montigny-le-Bretonneux;33046;78;00851;Paris;10909327;03-Grande couronne;16;3612;32;15 065;335 385;287 776;16,5;De 300 à 450 000 entrées;UGC CINE CITE;UGC;NON;NON;;FIXE;OUI;B;214;168;170;34,1;49,6;14,5;1,8;59;24,8;15,6;48.784168;2.039775
723600;MEGARAMA;ILE-DE-FRANCE;82 BOULEVARD VICTOR BORDIER;95424;Montigny-lès-Cormeilles;21748;95;00851;Paris;10909327;03-Grande couronne;8;1861;32;8 308;239 758;150 948;58,8;De 200 à 300 000 entrées;FORUM INTERNATIONAL;AGORA;NON;NON;;FIXE;OUI;B;116;106;104;21,7;61,7;15,1;1,5;12;7,0;4,2;48.994228;2.194982
723680;CGR MY PLACE SARCELLES;ILE-DE-FRANCE;2 ALLEE HENRI DUNANT;95585;Sarcelles;59063;95;00851;Paris;10909327;03-Grande couronne;10;1817;32;12 440;171 723;108 998;57,5;De 150 à 200 000 entrées;ANGEOR;LES FILMS DE LA ROCHELLE;NON;NON;;FIXE;OUI;B;148;120;122;15,8;67,0;13,9;3,3;11;6,4;2,4;48.984111;2.372423
723760;PATHE;ILE-DE-FRANCE;21 PLACE DU GRAND OUEST;91377;Massy;50985;91;00851;Paris;10909327;03-Grande couronne;9;1894;32;8 216;275 734;188 008;46,7;De 200 à 300 000 entrées;PATHE MASSY;PATHE GAUMONT;NON;NON;;FIXE;OUI;B;164;134;105;22,6;59,9;16,0;1,5;44;14,8;10,3;48.724173;2.262676
724000;CINE PINCE VENT;ILE-DE-FRANCE;CENTRE COMMERCIAL PINCE VENT 85 ROUTE DE PROVINS;94019;Chennevières-sur-Marne;18257;94;00851;Paris;10909327;02-Petite Couronne;8;1606;31;7 809;123 206;92 990;32,5;De 100 à 150 000 entrées;DELTA EXPLOITATION;UGC;NON;NON;;FIXE;OUI;B;114;108;98;31,8;54,3;13,3;0,5;23;14,9;8,0;48.7946166;2.5525718999999754
724120;UGC CINE CITE VELIZY;ILE-DE-FRANCE;2 AVENUE DE L'EUROPE;78640;Vélizy-Villacoublay;22836;78;00851;Paris;10909327;03-Grande couronne;18;3801;32;18 441;499 571;343 905;45,3;De 450 à 700 000 entrées;UGC CINE CITE;UGC;NON;NON;;FIXE;OUI;B;328;238;225;35,5;48,3;14,5;1,8;121;33,1;16,5;48.781030;2.189542
724320;UGC CINE CITE PARLY;ILE-DE-FRANCE;2 AVENUE CHARLES DE GAULLE;78158;Le Chesnay;31947;78;00851;Paris;10909327;03-Grande couronne;12;2199;32;10 585;269 519;184 465;46,1;De 200 à 300 000 entrées;UGC CINE CITE;UGC;NON;NON;;FIXE;OUI;B;165;131;131;42,5;39,6;16,3;1,6;52;30,9;21,0;48.827796;2.116072
724440;KINEPOLIS SERVON;ILE-DE-FRANCE;ZAC DE NOYER AUX PERDRIX;77450;SERVON;3321;77;00851;Paris;10909327;03-Grande couronne;9;1209;32;8 768;99 839;57 182;74,6;De 80 à 100 000 entrées;KINEPOLIS PROSPECTION;KINEPOLIS (Duquenne);NON;NON;;FIXE;OUI;B;148;125;122;27,8;56,9;13,6;1,6;20;10,7;5,5;48.718766;2.589559
10184;REX;HAUTS DE FRANCE;26 PLACE CLEMENCEAU;80001;Abbeville;23246;80;80401;Abbeville;26131;05-Unités urbaines de 20 000 à 100 000 hbts;3;511;32;1 445;11 512;12 265;-6,1;De 10 à 20 000 entrées;RD DIFFUSION;;OUI;D;RDJPPR;FIXE;NON;C;144;99;27;65,4;10,9;21,5;2,3;81;85,8;88,0;50.108677;1.834667
10192;CGR ABBEVILLE LA SUCRERIE;HAUTS DE FRANCE;2 RUE DE MENCHECOURT;80001;Abbeville;23246;80;80401;Abbeville;26131;05-Unités urbaines de 20 000 à 100 000 hbts;8;1209;32;9 532;114 397;79 017;44,8;De 100 à 150 000 entrées;ABBEVILLE CINE;LES FILMS DE LA ROCHELLE;NON;NON;;FIXE;OUI;C;124;109;111;40,5;47,2;11,4;0,9;15;10,6;3,4;50.115049;1.824393
11101;LE FOYER;BRETAGNE;RUE NDU STADE;35001;Acigné;6977;35;35206;Acigné;6977;06-autres communes et unités urbaines;2;268;26;485;12 901;11 347;13,7;De 10 à 20 000 entrées;ASSOCIATION POUR LE DEVELOPPEMENT DU CINEMA A ACIGNE;CINEDIFFUSION;OUI;E;;FIXE;NON;I;136;122;21;66,5;22,3;9,6;1,6;69;49,8;37,1;48.135609;-1.537695
11854;CINEMA DE L'ESPACE;NORMANDIE;AVENUE ROOSEVELT;50003;Agon-Coutainville;2885;50;50203;Agon-Coutainville;8658;06-autres communes et unités urbaines;1;79;32;304;4 729;3 642;29,8;De 2 à 5 000 entrées;ASSOCIATION DU CINEMA DE LA PLAGE;;OUI;E;JPPR;FIXE;NON;C;104;88;0;62,9;27,4;7,3;2,4;46;50,8;38,7;49.048659;-1.595352
12101;L AIGLON;NORMANDIE;7 RUE DU DOCTEUR ROUYER;61214;L' Aigle;8252;61;61301;L'Aigle;11412;06-autres communes et unités urbaines;1;490;32;562;17 040;11 705;45,6;De 10 à 20 000 entrées;CINEMA L' AIGLON (EX CASINO DE JOINVILLE SARL);NOE (Patry);OUI;E;;FIXE;NON;C;131;104;23;42,8;41,6;14,8;0,8;46;17,8;6,7;48.762976;0.62734
12612;CINEMA MODERNE;CENTRE-VAL DE LOIRE;CHEMIN DU CINEMA;36001;Aigurande;1453;36;00000;Zone rurale;14862638;04-Unités urbaines de 100 000 hbts ou plus;1;286;31;397;5 854;3 172;84,6;De 5 à 10 000 entrées;VILLE D'AIGURANDE;;OUI;E;;FIXE;NON;R;86;73;0;74,8;19,3;5,4;0,5;28;36,5;19,7;46.431926;1.830697
14033;LE CASINO;HAUTS DE FRANCE;29 RUE DE BOULAN;80016;Albert;9973;80;80301;Albert;9973;06-autres communes et unités urbaines;2;360;30;896;17 909;12 635;41,7;De 10 à 20 000 entrées;BLED ALAIN JOSEPH CHARLES;;NON;NON;;FIXE;NON;I;85;68;39;43,3;46,8;9,6;0,2;6;4,4;2,0;50.004652;2.648257
14445;PLANET'CINE;NORMANDIE;194 RUE DE BRETAGNE;61001;Alençon;26523;61;00461;Alençon;42631;05-Unités urbaines de 20 000 à 100 000 hbts;7;1199;32;5 711;116 507;80 071;45,5;De 100 à 150 000 entrées;LES ECRANS D'ALENCON;CINEDIFFUSION;OUI;D;;FIXE;NON;C;199;165;128;46,3;42,0;11,0;0,7;62;17,7;9,7;48.433552;0.063775
15682;SALLE POLYVALENTE;PAYS DE LA LOIRE;SALLE POLYVALENTE;72003;Allonnes;11184;72;72701;Le Mans;214723;04-Unités urbaines de 100 000 hbts ou plus;1;600;27;398;9 610;14 642;-34,4;De 5 à 10 000 entrées;CINEAMBUL 72;;NON;NON;;ITINERANT;NON;B;81;59;1;85,2;6,1;7,3;1,3;27;24,7;25,9;47.983405;0.148339
16803;CINEA;CENTRE-VAL DE LOIRE;3 PLACE ST DENIS;37003;Amboise;13071;37;37701;Tours;362653;04-Unités urbaines de 100 000 hbts ou plus;2;354;32;1 128;20 698;13 505;53,3;De 20 à 30 000 entrées;SARL MERLIN L;;NON;NON;;FIXE;NON;B;76;60;44;52,1;39,6;8,2;0,2;11;10,5;5,6;47.41057;0.980035
17303;STUDIO ORSON WELLES;HAUTS DE FRANCE;2 PLACE LEON GONTIER;80021;Amiens;136545;80;80601;Amiens;167382;04-Unités urbaines de 100 000 hbts ou plus;1;175;28;612;9 231;10 922;-15,5;De 5 à 10 000 entrées;MAISON DE LA CULTURE D AMIENS;;OUI;B;RDJPPR;FIXE;NON;C;100;58;15;60,4;24,0;6,7;8,9;54;96,4;97,8;49.89407;2.292451
17325;CINE SAINT LEU;HAUTS DE FRANCE;5-9 RUE DE LA PLUMETTE;80021;Amiens;136545;80;80601;Amiens;167382;04-Unités urbaines de 100 000 hbts ou plus;1;254;32;942;24 522;25 039;-2,1;De 20 à 30 000 entrées;ASS JOURNEES CINE AMIENS CONTRE RACISME;;OUI;B;RDJPPR;FIXE;NON;C;109;69;26;69,7;10,2;13,0;7,1;67;99,4;99,6;49.896685;2.302146
17326;GAUMONT;HAUTS DE FRANCE;5 BOULEVARD DE BELFORT;80021;Amiens;136545;80;80601;Amiens;167382;04-Unités urbaines de 100 000 hbts ou plus;12;2682;32;11 304;337 007;229 212;47,0;De 300 à 450 000 entrées;GAUMONT PICARDIE                                                ;PATHE GAUMONT;NON;NON;;FIXE;OUI;C;209;180;157;35,8;50,4;12,6;1,2;71;19,3;11,3;49.889445;2.304933
17803;EDEN 3;PAYS DE LA LOIRE;90 RUE ANDREE ET MARCE BRAUD;44003;Ancenis;11405;44;44301;Ancenis;11405;06-autres communes et unités urbaines;3;549;32;1 712;65 347;49 471;32,1;De 50 à 80 000 entrées;ASSOCIATION LOUIS LUMIERE;CINEDIFFUSION;OUI;E;RDJPPR;FIXE;NON;C;248;191;29;48,2;39,5;11,1;1,2;109;34,5;16,9;47.364116;-1.178442
18291;PALACE;NORMANDIE;19 R SELLENICK / AV REPUBLIQUE;27016;Les Andelys;8233;27;27207;Les Andelys;8478;06-autres communes et unités urbaines;3;407;32;2 195;40 620;26 206;55,0;De 40 à 50 000 entrées;LE PALACE;NOE (Patry);OUI;E;JP;FIXE;NON;C;162;131;48;36,6;49,9;12,2;1,2;61;12,7;5,7;49.246748;1.416469
18701;NORMANDIE;CENTRE-VAL DE LOIRE;6 RUE DESIRE ROUSSEL;28007;Anet;2817;28;00361;Ézy-sur-Eure;17944;06-autres communes et unités urbaines;1;250;27;128;3 330;3 532;-5,7;De 2 à 5 000 entrées;COMMUNE D ANET;;NON;NON;;FIXE;NON;C;63;43;0;80,0;11,4;8,5;0,0;12;26,1;17,7;48.857505;1.439036
18861;LES 400 COUPS;PAYS DE LA LOIRE;12 RUE CLAVEAU;49007;Angers;157577;49;49701;Angers;236073;04-Unités urbaines de 100 000 hbts ou plus;7;811;32;6 994;149 023;137 014;8,8;De 100 à 150 000 entrées;CYBELE;Poiroux ;OUI;A;RDJPPR;FIXE;NON;C;269;181;163;67,0;15,8;12,8;4,3;163;85,5;83,9;47.472132;-0.553522
18866;PATHE;PAYS DE LA LOIRE;AVENUE DES DROITS DE L'HOMME;49007;Angers;157577;49;49701;Angers;236073;04-Unités urbaines de 100 000 hbts ou plus;12;2522;32;11 300;325 142;216 384;50,3;De 300 à 450 000 entrées;GAUMONT;PATHE GAUMONT;NON;NON;;FIXE;OUI;C;208;178;149;37,7;47,6;13,5;1,2;66;17,7;10,9;47.478647;-0.549339
23241;NORMANDY;NORMANDIE;13 RUE MEHEUDIN;61006;Argentan;14098;61;61302;Argentan;15405;06-autres communes et unités urbaines;3;534;32;1 368;28 303;18 007;57,2;De 20 à 30 000 entrées;LES FEUX DE LA RAMPE;CINEDIFFUSION;OUI;E;JP;FIXE;NON;C;117;97;66;50,9;39,8;8,7;0,7;26;12,3;6,0;48.745411;-0.019397
23513;EDEN PALACE;CENTRE-VAL DE LOIRE;8 RUE BARBES;36006;Argenton-sur-Creuse;5115;36;36203;Argenton-sur-Creuse;8544;06-autres communes et unités urbaines;1;187;32;458;13 931;9 149;52,3;De 10 à 20 000 entrées;ASSOCIATION EDEN PALACE;VEO (Baron);OUI;E;JPPR;FIXE;NON;C;119;104;4;65,1;24,8;9,8;0,3;39;32,3;21,5;46.588805;1.51986
23541;CIN EVASION;BRETAGNE;6 RUE AMBROISE PARE;35006;Argentré-du-Plessis;4574;35;35126;Argentré-du-Plessis;4574;06-autres communes et unités urbaines;1;158;29;228;4 001;2 763;44,8;De 2 à 5 000 entrées;LES JEUNES D'ARGENTRE;CINEDIFFUSION;OUI;E;;FIXE;NON;I;91;85;3;55,2;32,5;12,1;0,2;33;34,7;15,9;48.058076;-1.148927
23561;L'ARGENTIS;CENTRE-VAL DE LOIRE;PLACE NICOLAS LEBLANC;18011;Argent-sur-Sauldre;2122;18;18101;Argent-sur-Sauldre;2122;06-autres communes et unités urbaines;1;126;32;255;5 145;3 494;47,3;De 5 à 10 000 entrées;LES AMIS DU CINEMA                                              ;;NON;NON;;FIXE;NON;I;83;71;8;64,2;27,5;7,5;0,8;14;10,3;6,5;47.558659;2.446881
25722;CIRCUIT 1;CENTRE-VAL DE LOIRE;PLACE DE L'EGLISE;45008;Artenay;1950;45;00000;Zone rurale;14862638;04-Unités urbaines de 100 000 hbts ou plus;1;100;28;590;10 035;8 573;17,1;De 10 à 20 000 entrées;AGENCE POUR DEVELOPPEMENT ACTIVITES TOURISTIQUES ET CULTURELLES;;OUI;E;JPPR;ITINERANT;NON;R;60;35;0;66,0;23,6;10,4;0,0;12;31,8;23,3;48.083036;1.87847
26402;LA LOCOMOTIVE;BRETAGNE;PLACE DE L'ANCIENNE GARE;56005;Arzon;2165;56;56102;Arzon;2165;06-autres communes et unités urbaines;2;246;32;1 438;20 706;10 051;106,0;De 20 à 30 000 entrées;DORMOY SEBIRE AUDREY;;OUI;E;JPPR;FIXE;NON;I;114;95;43;71,2;16,3;10,1;2,4;49;46,9;32,4;47.546509;-2.910816
28732;ATOMIC;CENTRE-VAL DE LOIRE;23 RUE DU PRIEURE;18015;Aubigny-sur-Nère;5604;18;18201;Aubigny-sur-Nère;5604;06-autres communes et unités urbaines;1;163;30;471;7 228;4 735;52,7;De 5 à 10 000 entrées;ATOMIC CINEMA;GPCI (Vintrou);OUI;E;JPPR;FIXE;NON;I;128;103;2;57,2;32,1;10,1;0,6;43;32,6;16,2;47.488316;2.43949
29373;CINE GOYEN;BRETAGNE;13 RUE LOUIS PASTEUR;29003;Audierne;3758;29;29213;Plouhinec - Audierne;7838;06-autres communes et unités urbaines;1;516;32;578;12 513;9 106;37,4;De 10 à 20 000 entrées;VIGOUROUX YVES;MICROMEGAS (Clochard);OUI;E;JP;FIXE;NON;B;128;110;6;61,3;25,0;11,7;1,9;63;53,6;40,8;48.022078;-4.5389
